[
 {
   "id": 1,
   "sid": 695080040,
   "address": "6865 Bonner Place",
   "Longtitude": 53.0211497,
   "Latitude": 51.1749425,
   "number_of_panels": 1009,
   "capacity_pr_panel_in_W": 343,
   "theo max in W": 374088,
   "direction": 151,
   "inclination": 10,
   "effecincy": 18,
   "manufacturer": "Jerde LLC",
   "model": "DeVille"
 },
 {
   "id": 2,
   "sid": 451993683,
   "address": "3235 Harbort Place",
   "Longtitude": 2.6981496,
   "Latitude": 47.3036891,
   "number_of_panels": 924,
   "capacity_pr_panel_in_W": 3177,
   "theo max in W": 2935548,
   "direction": 38,
   "inclination": 13,
   "effecincy": 15,
   "manufacturer": "Dicki, Lubowitz and Bogisich",
   "model": "Roadmaster"
 },
 {
   "id": 3,
   "sid": 827839936,
   "address": "0 Clyde Gallagher Park",
   "Longtitude": 98.1680005,
   "Latitude": 4.4054033,
   "number_of_panels": 427,
   "capacity_pr_panel_in_W": 714,
   "theo max in W": 304878,
   "direction": 10,
   "inclination": 13,
   "effecincy": 8,
   "manufacturer": "Dietrich Inc",
   "model": "Mazdaspeed6"
 },
 {
   "id": 4,
   "sid": 978224451,
   "address": "6 Stephen Junction",
   "Longtitude": -72.6833,
   "Latitude": -38.25,
   "number_of_panels": 468,
   "capacity_pr_panel_in_W": 960,
   "theo max in W": 449280,
   "direction": 182,
   "inclination": 6,
   "effecincy": 25,
   "manufacturer": "Quigley, Nicolas and Greenholt",
   "model": "Explorer"
 },
 {
   "id": 5,
   "sid": 197343101,
   "address": "06 Arapahoe Trail",
   "Longtitude": -38.612338,
   "Latitude": -3.879263,
   "number_of_panels": 501,
   "capacity_pr_panel_in_W": 4059,
   "theo max in W": 2033559,
   "direction": 68,
   "inclination": 13,
   "effecincy": 14,
   "manufacturer": "Aufderhar, Morissette and Buckridge",
   "model": "Sable"
 },
 {
   "id": 6,
   "sid": 820642406,
   "address": "6 Fair Oaks Drive",
   "Longtitude": 102.2268924,
   "Latitude": 31.8978496,
   "number_of_panels": 61,
   "capacity_pr_panel_in_W": 1985,
   "theo max in W": 121085,
   "direction": 156,
   "inclination": 4,
   "effecincy": 8,
   "manufacturer": "Pfeffer-Effertz",
   "model": "S2000"
 },
 {
   "id": 7,
   "sid": 117464439,
   "address": "415 Clyde Gallagher Court",
   "Longtitude": 116.681972,
   "Latitude": 23.354091,
   "number_of_panels": 899,
   "capacity_pr_panel_in_W": 4901,
   "theo max in W": 4405999,
   "direction": 351,
   "inclination": 12,
   "effecincy": 19,
   "manufacturer": "Turner-Carroll",
   "model": "Express"
 },
 {
   "id": 8,
   "sid": 136204664,
   "address": "1 8th Place",
   "Longtitude": 24.4422029,
   "Latitude": 53.1516417,
   "number_of_panels": 436,
   "capacity_pr_panel_in_W": 3846,
   "theo max in W": 1676856,
   "direction": 91,
   "inclination": 14,
   "effecincy": 23,
   "manufacturer": "Zboncak Inc",
   "model": "GTO"
 },
 {
   "id": 9,
   "sid": 2061061,
   "address": "749 Canary Hill",
   "Longtitude": 113.740529,
   "Latitude": 34.395562,
   "number_of_panels": 267,
   "capacity_pr_panel_in_W": 3855,
   "theo max in W": 1029285,
   "direction": 23,
   "inclination": 9,
   "effecincy": 7,
   "manufacturer": "Considine Inc",
   "model": "Hombre Space"
 },
 {
   "id": 10,
   "sid": 124435119,
   "address": "494 Little Fleur Trail",
   "Longtitude": 101.7178316,
   "Latitude": 3.1523104,
   "number_of_panels": 359,
   "capacity_pr_panel_in_W": 4794,
   "theo max in W": 1721046,
   "direction": 30,
   "inclination": 9,
   "effecincy": 11,
   "manufacturer": "McClure and Sons",
   "model": "57"
 },
 {
   "id": 11,
   "sid": 756216240,
   "address": "124 Pawling Hill",
   "Longtitude": -70.3494605,
   "Latitude": -15.6412156,
   "number_of_panels": 465,
   "capacity_pr_panel_in_W": 4102,
   "theo max in W": 1907430,
   "direction": 145,
   "inclination": 16,
   "effecincy": 25,
   "manufacturer": "Crist LLC",
   "model": "SLX"
 },
 {
   "id": 12,
   "sid": 950356157,
   "address": "2980 Judy Terrace",
   "Longtitude": -121.49,
   "Latitude": 38.58,
   "number_of_panels": 743,
   "capacity_pr_panel_in_W": 4263,
   "theo max in W": 3167409,
   "direction": 251,
   "inclination": 1,
   "effecincy": 9,
   "manufacturer": "Kris-Hoeger",
   "model": "Montero Sport"
 },
 {
   "id": 13,
   "sid": 387002292,
   "address": "09701 Hagan Drive",
   "Longtitude": 113.300129,
   "Latitude": 40.076762,
   "number_of_panels": 788,
   "capacity_pr_panel_in_W": 3844,
   "theo max in W": 3029072,
   "direction": 51,
   "inclination": 9,
   "effecincy": 19,
   "manufacturer": "Orn, Rice and Anderson",
   "model": "3 Series"
 },
 {
   "id": 14,
   "sid": 226171210,
   "address": "0 Pine View Alley",
   "Longtitude": 16.5847329,
   "Latitude": 47.675717,
   "number_of_panels": 22,
   "capacity_pr_panel_in_W": 353,
   "theo max in W": 798458,
   "direction": 21,
   "inclination": 11,
   "effecincy": 17,
   "manufacturer": "Gorczany, Jacobson and Bergstrom",
   "model": "Navigator"
 },
 {
   "id": 15,
   "sid": 287608287,
   "address": "9 Ilene Terrace",
   "Longtitude": 113.293359,
   "Latitude": 22.80524,
   "number_of_panels": 542,
   "capacity_pr_panel_in_W": 3645,
   "theo max in W": 1975590,
   "direction": 67,
   "inclination": 1,
   "effecincy": 17,
   "manufacturer": "Yundt, Jast and Altenwerth",
   "model": "Sonata"
 },
 {
   "id": 16,
   "sid": 631955333,
   "address": "4979 Stang Court",
   "Longtitude": 121.562754,
   "Latitude": 31.211212,
   "number_of_panels": 541,
   "capacity_pr_panel_in_W": 2962,
   "theo max in W": 1602442,
   "direction": 151,
   "inclination": 1,
   "effecincy": 10,
   "manufacturer": "Quigley-Metz",
   "model": "Mark LT"
 },
 {
   "id": 17,
   "sid": 654836190,
   "address": "1645 Hallows Lane",
   "Longtitude": -106.43,
   "Latitude": 31.77,
   "number_of_panels": 743,
   "capacity_pr_panel_in_W": 816,
   "theo max in W": 606288,
   "direction": 117,
   "inclination": 14,
   "effecincy": 17,
   "manufacturer": "Torphy LLC",
   "model": "Quattroporte"
 },
 {
   "id": 18,
   "sid": 968048241,
   "address": "07038 Declaration Plaza",
   "Longtitude": 41.0192289,
   "Latitude": 45.1338056,
   "number_of_panels": 492,
   "capacity_pr_panel_in_W": 4778,
   "theo max in W": 2350776,
   "direction": 169,
   "inclination": 7,
   "effecincy": 20,
   "manufacturer": "Gibson, Walker and Rippin",
   "model": "Corolla"
 },
 {
   "id": 19,
   "sid": 568200151,
   "address": "6458 Park Meadow Way",
   "Longtitude": 51.0193,
   "Latitude": 35.6803,
   "number_of_panels": 524,
   "capacity_pr_panel_in_W": 1922,
   "theo max in W": 1007128,
   "direction": 232,
   "inclination": 7,
   "effecincy": 19,
   "manufacturer": "Emmerich and Sons",
   "model": "LR4"
 },
 {
   "id": 20,
   "sid": 802061834,
   "address": "2 Forster Court",
   "Longtitude": 112.9889132,
   "Latitude": 28.1459758,
   "number_of_panels": 833,
   "capacity_pr_panel_in_W": 1960,
   "theo max in W": 1632680,
   "direction": 37,
   "inclination": 18,
   "effecincy": 12,
   "manufacturer": "Kilback, Schoen and Grant",
   "model": "Tacoma Xtra"
 },
 {
   "id": 21,
   "sid": 637689943,
   "address": "812 Arrowood Plaza",
   "Longtitude": 103.82287,
   "Latitude": 1.504786,
   "number_of_panels": 451,
   "capacity_pr_panel_in_W": 4333,
   "theo max in W": 1954183,
   "direction": 262,
   "inclination": 16,
   "effecincy": 19,
   "manufacturer": "Ankunding-Hessel",
   "model": "Aveo"
 },
 {
   "id": 22,
   "sid": 22725051,
   "address": "6 Birchwood Park",
   "Longtitude": 107.71625,
   "Latitude": 15.113472,
   "number_of_panels": 532,
   "capacity_pr_panel_in_W": 3019,
   "theo max in W": 1606108,
   "direction": 284,
   "inclination": 2,
   "effecincy": 7,
   "manufacturer": "Bauch, Swaniawski and Greenholt",
   "model": "E-Class"
 },
 {
   "id": 23,
   "sid": 835046057,
   "address": "4 Straubel Park",
   "Longtitude": -74.2932,
   "Latitude": 9.14586,
   "number_of_panels": 209,
   "capacity_pr_panel_in_W": 3218,
   "theo max in W": 672562,
   "direction": 304,
   "inclination": 8,
   "effecincy": 12,
   "manufacturer": "Hammes, Swift and Hintz",
   "model": "Grand Am"
 },
 {
   "id": 24,
   "sid": 973455466,
   "address": "61522 Saint Paul Junction",
   "Longtitude": 110.4649383,
   "Latitude": -7.8862987,
   "number_of_panels": 140,
   "capacity_pr_panel_in_W": 2885,
   "theo max in W": 403900,
   "direction": 102,
   "inclination": 15,
   "effecincy": 19,
   "manufacturer": "Runte LLC",
   "model": "Coachbuilder"
 },
 {
   "id": 25,
   "sid": 489303568,
   "address": "94 Rowland Junction",
   "Longtitude": 121.626963,
   "Latitude": 29.042269,
   "number_of_panels": 419,
   "capacity_pr_panel_in_W": 1734,
   "theo max in W": 726546,
   "direction": 278,
   "inclination": 9,
   "effecincy": 17,
   "manufacturer": "Anderson-Moore",
   "model": "Crosstour"
 },
 {
   "id": 26,
   "sid": 776370274,
   "address": "2 Eggendart Street",
   "Longtitude": -122.4206086,
   "Latitude": 47.2420053,
   "number_of_panels": 54,
   "capacity_pr_panel_in_W": 4337,
   "theo max in W": 234198,
   "direction": 183,
   "inclination": 15,
   "effecincy": 24,
   "manufacturer": "Hermann, Langworth and Boyer",
   "model": "Canyon"
 },
 {
   "id": 27,
   "sid": 591585701,
   "address": "1885 Colorado Hill",
   "Longtitude": -48.3242858,
   "Latitude": -10.249091,
   "number_of_panels": 408,
   "capacity_pr_panel_in_W": 130,
   "theo max in W": 53040,
   "direction": 262,
   "inclination": 5,
   "effecincy": 14,
   "manufacturer": "Towne, Schaefer and Roob",
   "model": "LSS"
 },
 {
   "id": 28,
   "sid": 616710925,
   "address": "40 1st Street",
   "Longtitude": 110.3249238,
   "Latitude": -7.7929433,
   "number_of_panels": 260,
   "capacity_pr_panel_in_W": 2625,
   "theo max in W": 682500,
   "direction": 153,
   "inclination": 13,
   "effecincy": 23,
   "manufacturer": "Swift LLC",
   "model": "Charger"
 },
 {
   "id": 29,
   "sid": 733205840,
   "address": "9 Truax Hill",
   "Longtitude": 2.3645084,
   "Latitude": 48.9105576,
   "number_of_panels": 949,
   "capacity_pr_panel_in_W": 720,
   "theo max in W": 683280,
   "direction": 302,
   "inclination": 1,
   "effecincy": 8,
   "manufacturer": "Bashirian and Sons",
   "model": "Suburban 2500"
 },
 {
   "id": 30,
   "sid": 979279545,
   "address": "207 Bartillon Alley",
   "Longtitude": 120.7806412,
   "Latitude": 16.004175,
   "number_of_panels": 734,
   "capacity_pr_panel_in_W": 568,
   "theo max in W": 416912,
   "direction": 105,
   "inclination": 11,
   "effecincy": 18,
   "manufacturer": "Jakubowski, Batz and Stehr",
   "model": "Sequoia"
 },
 {
   "id": 31,
   "sid": 443183764,
   "address": "6865 Dakota Way",
   "Longtitude": 35.20184,
   "Latitude": 32.4438,
   "number_of_panels": 978,
   "capacity_pr_panel_in_W": 3671,
   "theo max in W": 3590238,
   "direction": 158,
   "inclination": 11,
   "effecincy": 16,
   "manufacturer": "Friesen-Kemmer",
   "model": "Rally Wagon G3500"
 },
 {
   "id": 32,
   "sid": 274204089,
   "address": "97173 Namekagon Circle",
   "Longtitude": -90.7746443,
   "Latitude": 14.2724013,
   "number_of_panels": 390,
   "capacity_pr_panel_in_W": 1960,
   "theo max in W": 764400,
   "direction": 12,
   "inclination": 16,
   "effecincy": 16,
   "manufacturer": "Metz and Sons",
   "model": "Golf"
 },
 {
   "id": 33,
   "sid": 71296083,
   "address": "82 Mallard Plaza",
   "Longtitude": 69.15038,
   "Latitude": 36.22242,
   "number_of_panels": 317,
   "capacity_pr_panel_in_W": 2998,
   "theo max in W": 950366,
   "direction": 178,
   "inclination": 20,
   "effecincy": 22,
   "manufacturer": "Buckridge-Christiansen",
   "model": "E-Series"
 },
 {
   "id": 34,
   "sid": 831760930,
   "address": "0019 Lillian Junction",
   "Longtitude": 22.2240066,
   "Latitude": 60.3588201,
   "number_of_panels": 252,
   "capacity_pr_panel_in_W": 1327,
   "theo max in W": 334404,
   "direction": 340,
   "inclination": 16,
   "effecincy": 11,
   "manufacturer": "Witting LLC",
   "model": "XK"
 },
 {
   "id": 35,
   "sid": 613989605,
   "address": "3201 Mcguire Terrace",
   "Longtitude": -64.8318347,
   "Latitude": 9.4546148,
   "number_of_panels": 509,
   "capacity_pr_panel_in_W": 1805,
   "theo max in W": 918745,
   "direction": 56,
   "inclination": 11,
   "effecincy": 12,
   "manufacturer": "Bruen and Sons",
   "model": "Esteem"
 },
 {
   "id": 36,
   "sid": 631774702,
   "address": "8 Hazelcrest Circle",
   "Longtitude": -46.1640692,
   "Latitude": -22.2691578,
   "number_of_panels": 964,
   "capacity_pr_panel_in_W": 3353,
   "theo max in W": 3232292,
   "direction": 231,
   "inclination": 17,
   "effecincy": 7,
   "manufacturer": "Muller Group",
   "model": "C-Class"
 },
 {
   "id": 37,
   "sid": 325550364,
   "address": "56 Mariners Cove Place",
   "Longtitude": 110.084789,
   "Latitude": 34.477861,
   "number_of_panels": 848,
   "capacity_pr_panel_in_W": 3481,
   "theo max in W": 2951888,
   "direction": 260,
   "inclination": 9,
   "effecincy": 15,
   "manufacturer": "Macejkovic-Kreiger",
   "model": "Defender"
 },
 {
   "id": 38,
   "sid": 780211197,
   "address": "04384 Eastwood Parkway",
   "Longtitude": 113.1705,
   "Latitude": -6.8982,
   "number_of_panels": 895,
   "capacity_pr_panel_in_W": 657,
   "theo max in W": 588015,
   "direction": 218,
   "inclination": 7,
   "effecincy": 13,
   "manufacturer": "Conn, Howe and Strosin",
   "model": "Forester"
 },
 {
   "id": 39,
   "sid": 968784753,
   "address": "1488 Milwaukee Pass",
   "Longtitude": 119.9303933,
   "Latitude": 15.4004052,
   "number_of_panels": 128,
   "capacity_pr_panel_in_W": 2962,
   "theo max in W": 379136,
   "direction": 182,
   "inclination": 19,
   "effecincy": 13,
   "manufacturer": "Weimann Inc",
   "model": "Eclipse"
 },
 {
   "id": 40,
   "sid": 546260600,
   "address": "0029 West Drive",
   "Longtitude": 13.5270951,
   "Latitude": 45.9974545,
   "number_of_panels": 682,
   "capacity_pr_panel_in_W": 1728,
   "theo max in W": 1178496,
   "direction": 66,
   "inclination": 0,
   "effecincy": 22,
   "manufacturer": "Block, Abshire and Stiedemann",
   "model": "A7"
 },
 {
   "id": 41,
   "sid": 51175617,
   "address": "766 Glacier Hill Park",
   "Longtitude": 61.6713386,
   "Latitude": 27.1259886,
   "number_of_panels": 4,
   "capacity_pr_panel_in_W": 1995,
   "theo max in W": 7980,
   "direction": 120,
   "inclination": 0,
   "effecincy": 19,
   "manufacturer": "Adams, Zieme and Aufderhar",
   "model": "Stealth"
 },
 {
   "id": 42,
   "sid": 868734545,
   "address": "7 Carberry Center",
   "Longtitude": 124.3382,
   "Latitude": -10.0431,
   "number_of_panels": 462,
   "capacity_pr_panel_in_W": 1503,
   "theo max in W": 694386,
   "direction": 94,
   "inclination": 10,
   "effecincy": 6,
   "manufacturer": "Toy-Strosin",
   "model": "Interceptor"
 },
 {
   "id": 43,
   "sid": 42023240,
   "address": "5 Mockingbird Trail",
   "Longtitude": 111.2517127,
   "Latitude": -7.0511949,
   "number_of_panels": 366,
   "capacity_pr_panel_in_W": 4052,
   "theo max in W": 1483032,
   "direction": 240,
   "inclination": 10,
   "effecincy": 7,
   "manufacturer": "O'Connell, Glover and Jast",
   "model": "Grand Marquis"
 },
 {
   "id": 44,
   "sid": 499036898,
   "address": "02 Meadow Valley Alley",
   "Longtitude": 123.3026369,
   "Latitude": 9.3140186,
   "number_of_panels": 627,
   "capacity_pr_panel_in_W": 3558,
   "theo max in W": 2230866,
   "direction": 101,
   "inclination": 4,
   "effecincy": 5,
   "manufacturer": "Weissnat Group",
   "model": "Savana 2500"
 },
 {
   "id": 45,
   "sid": 266113398,
   "address": "4 Grover Street",
   "Longtitude": 23.5302946,
   "Latitude": 49.9484387,
   "number_of_panels": 217,
   "capacity_pr_panel_in_W": 3231,
   "theo max in W": 701127,
   "direction": 345,
   "inclination": 0,
   "effecincy": 18,
   "manufacturer": "Greenholt Inc",
   "model": "Suburban 2500"
 },
 {
   "id": 46,
   "sid": 782837549,
   "address": "9 Veith Center",
   "Longtitude": 34.8844867,
   "Latitude": -19.7963816,
   "number_of_panels": 565,
   "capacity_pr_panel_in_W": 3859,
   "theo max in W": 2180335,
   "direction": 91,
   "inclination": 0,
   "effecincy": 7,
   "manufacturer": "Cruickshank-Kling",
   "model": "Insight"
 },
 {
   "id": 47,
   "sid": 661857953,
   "address": "5 Anzinger Hill",
   "Longtitude": 20.4633133,
   "Latitude": 44.0207262,
   "number_of_panels": 873,
   "capacity_pr_panel_in_W": 2771,
   "theo max in W": 2419083,
   "direction": 183,
   "inclination": 11,
   "effecincy": 12,
   "manufacturer": "Roob, Bailey and Mosciski",
   "model": "Talon"
 },
 {
   "id": 48,
   "sid": 854553119,
   "address": "525 Iowa Pass",
   "Longtitude": -72.3607108,
   "Latitude": 7.6988579,
   "number_of_panels": 412,
   "capacity_pr_panel_in_W": 3778,
   "theo max in W": 1556536,
   "direction": 12,
   "inclination": 19,
   "effecincy": 20,
   "manufacturer": "Bruen, Harvey and Beer",
   "model": "Sentra"
 },
 {
   "id": 49,
   "sid": 647741199,
   "address": "1 Rowland Plaza",
   "Longtitude": -119.4783845,
   "Latitude": 49.8856767,
   "number_of_panels": 362,
   "capacity_pr_panel_in_W": 3370,
   "theo max in W": 1219940,
   "direction": 130,
   "inclination": 11,
   "effecincy": 11,
   "manufacturer": "Leannon-Renner",
   "model": "CR-Z"
 },
 {
   "id": 50,
   "sid": 741232943,
   "address": "37 Forster Lane",
   "Longtitude": 18.2125197,
   "Latitude": 50.0144436,
   "number_of_panels": 231,
   "capacity_pr_panel_in_W": 475,
   "theo max in W": 109725,
   "direction": 65,
   "inclination": 4,
   "effecincy": 12,
   "manufacturer": "Robel LLC",
   "model": "430"
 },
 {
   "id": 51,
   "sid": 220060824,
   "address": "9 Anniversary Plaza",
   "Longtitude": -73.3384471,
   "Latitude": 9.5608923,
   "number_of_panels": 307,
   "capacity_pr_panel_in_W": 4404,
   "theo max in W": 1352028,
   "direction": 19,
   "inclination": 6,
   "effecincy": 12,
   "manufacturer": "Toy LLC",
   "model": "Tribute"
 },
 {
   "id": 52,
   "sid": 502029759,
   "address": "6 Leroy Trail",
   "Longtitude": 116.681972,
   "Latitude": 23.354091,
   "number_of_panels": 182,
   "capacity_pr_panel_in_W": 1763,
   "theo max in W": 320866,
   "direction": 45,
   "inclination": 9,
   "effecincy": 8,
   "manufacturer": "Leannon-Jacobson",
   "model": "H2"
 },
 {
   "id": 53,
   "sid": 750414149,
   "address": "096 3rd Road",
   "Longtitude": 120.2805849,
   "Latitude": 14.83302,
   "number_of_panels": 687,
   "capacity_pr_panel_in_W": 3252,
   "theo max in W": 2234124,
   "direction": 324,
   "inclination": 10,
   "effecincy": 20,
   "manufacturer": "Jacobs and Sons",
   "model": "V50"
 },
 {
   "id": 54,
   "sid": 876703499,
   "address": "96 Jenifer Junction",
   "Longtitude": 77.002783,
   "Latitude": 39.119934,
   "number_of_panels": 538,
   "capacity_pr_panel_in_W": 3570,
   "theo max in W": 1920660,
   "direction": 116,
   "inclination": 7,
   "effecincy": 5,
   "manufacturer": "Stroman Group",
   "model": "IS"
 },
 {
   "id": 55,
   "sid": 396507654,
   "address": "24 East Court",
   "Longtitude": 20.8461704,
   "Latitude": 52.1859951,
   "number_of_panels": 315,
   "capacity_pr_panel_in_W": 4741,
   "theo max in W": 1493415,
   "direction": 82,
   "inclination": 14,
   "effecincy": 16,
   "manufacturer": "Miller Inc",
   "model": "GLI"
 },
 {
   "id": 56,
   "sid": 822403991,
   "address": "99 Sunnyside Way",
   "Longtitude": 117.468181,
   "Latitude": 29.185721,
   "number_of_panels": 182,
   "capacity_pr_panel_in_W": 3385,
   "theo max in W": 616070,
   "direction": 24,
   "inclination": 7,
   "effecincy": 11,
   "manufacturer": "Jakubowski, Muller and Brown",
   "model": "Probe"
 },
 {
   "id": 57,
   "sid": 477203825,
   "address": "68 Larry Drive",
   "Longtitude": 121.4256292,
   "Latitude": 13.9192331,
   "number_of_panels": 564,
   "capacity_pr_panel_in_W": 1292,
   "theo max in W": 728688,
   "direction": 101,
   "inclination": 10,
   "effecincy": 14,
   "manufacturer": "Witting LLC",
   "model": "Cougar"
 },
 {
   "id": 58,
   "sid": 468366621,
   "address": "3 Sage Plaza",
   "Longtitude": 24.1115593,
   "Latitude": 42.3569364,
   "number_of_panels": 123,
   "capacity_pr_panel_in_W": 2340,
   "theo max in W": 287820,
   "direction": 97,
   "inclination": 14,
   "effecincy": 20,
   "manufacturer": "Pollich and Sons",
   "model": "Caravan"
 },
 {
   "id": 59,
   "sid": 408347470,
   "address": "2 Walton Drive",
   "Longtitude": -100.9383192,
   "Latitude": 25.5562935,
   "number_of_panels": 949,
   "capacity_pr_panel_in_W": 2540,
   "theo max in W": 2410460,
   "direction": 222,
   "inclination": 16,
   "effecincy": 25,
   "manufacturer": "Jast-Wuckert",
   "model": "1500"
 },
 {
   "id": 60,
   "sid": 279513023,
   "address": "1765 Montana Way",
   "Longtitude": -27.306593,
   "Latitude": 38.7917289,
   "number_of_panels": 348,
   "capacity_pr_panel_in_W": 545,
   "theo max in W": 189660,
   "direction": 33,
   "inclination": 19,
   "effecincy": 11,
   "manufacturer": "Ledner and Sons",
   "model": "Azure T"
 },
 {
   "id": 61,
   "sid": 683413209,
   "address": "008 Ridgeview Pass",
   "Longtitude": -9.351354,
   "Latitude": 29.9338311,
   "number_of_panels": 676,
   "capacity_pr_panel_in_W": 2550,
   "theo max in W": 1723800,
   "direction": 51,
   "inclination": 20,
   "effecincy": 5,
   "manufacturer": "Lehner, Orn and Padberg",
   "model": "Tracker"
 },
 {
   "id": 62,
   "sid": 416942213,
   "address": "92 Lunder Center",
   "Longtitude": 23.6561725,
   "Latitude": 38.1189564,
   "number_of_panels": 413,
   "capacity_pr_panel_in_W": 1154,
   "theo max in W": 476602,
   "direction": 155,
   "inclination": 4,
   "effecincy": 21,
   "manufacturer": "Rempel-Runolfsson",
   "model": "Esprit"
 },
 {
   "id": 63,
   "sid": 807426737,
   "address": "1 Clove Point",
   "Longtitude": 18.4554178,
   "Latitude": 51.3541936,
   "number_of_panels": 16,
   "capacity_pr_panel_in_W": 2545,
   "theo max in W": 40720,
   "direction": 327,
   "inclination": 18,
   "effecincy": 16,
   "manufacturer": "Kutch Group",
   "model": "D250"
 },
 {
   "id": 64,
   "sid": 100453287,
   "address": "9 Hazelcrest Avenue",
   "Longtitude": 39.0241756,
   "Latitude": 9.1495559,
   "number_of_panels": 885,
   "capacity_pr_panel_in_W": 832,
   "theo max in W": 736320,
   "direction": 186,
   "inclination": 2,
   "effecincy": 20,
   "manufacturer": "Tillman Inc",
   "model": "Probe"
 },
 {
   "id": 65,
   "sid": 835786313,
   "address": "49 Maple Parkway",
   "Longtitude": 20.1963089,
   "Latitude": 44.7811062,
   "number_of_panels": 203,
   "capacity_pr_panel_in_W": 2396,
   "theo max in W": 486388,
   "direction": 46,
   "inclination": 11,
   "effecincy": 16,
   "manufacturer": "Reichert-Cruickshank",
   "model": "Tiburon"
 },
 {
   "id": 66,
   "sid": 783100561,
   "address": "87 Rockefeller Plaza",
   "Longtitude": 40.1418221,
   "Latitude": 49.3756258,
   "number_of_panels": 132,
   "capacity_pr_panel_in_W": 2571,
   "theo max in W": 339372,
   "direction": 171,
   "inclination": 18,
   "effecincy": 15,
   "manufacturer": "Wilderman and Sons",
   "model": "Windstar"
 },
 {
   "id": 67,
   "sid": 253832492,
   "address": "2 Hazelcrest Center",
   "Longtitude": -8.0376603,
   "Latitude": 38.2887838,
   "number_of_panels": 484,
   "capacity_pr_panel_in_W": 1058,
   "theo max in W": 512072,
   "direction": 172,
   "inclination": 19,
   "effecincy": 11,
   "manufacturer": "Prohaska, Leannon and Crona",
   "model": "Corvette"
 },
 {
   "id": 68,
   "sid": 896141088,
   "address": "263 Tony Place",
   "Longtitude": 13.0825375,
   "Latitude": 50.3863669,
   "number_of_panels": 395,
   "capacity_pr_panel_in_W": 4196,
   "theo max in W": 1657420,
   "direction": 259,
   "inclination": 2,
   "effecincy": 25,
   "manufacturer": "Hegmann, Price and Anderson",
   "model": "Odyssey"
 },
 {
   "id": 69,
   "sid": 82964403,
   "address": "62 Jackson Drive",
   "Longtitude": 24.32364,
   "Latitude": 50.85253,
   "number_of_panels": 971,
   "capacity_pr_panel_in_W": 230,
   "theo max in W": 223330,
   "direction": 91,
   "inclination": 2,
   "effecincy": 24,
   "manufacturer": "Hagenes LLC",
   "model": "Durango"
 },
 {
   "id": 70,
   "sid": 333079343,
   "address": "5 Grayhawk Parkway",
   "Longtitude": 174.7573811,
   "Latitude": -36.8537995,
   "number_of_panels": 553,
   "capacity_pr_panel_in_W": 483,
   "theo max in W": 267099,
   "direction": 355,
   "inclination": 16,
   "effecincy": 7,
   "manufacturer": "Mohr, Willms and Batz",
   "model": "xB"
 },
 {
   "id": 71,
   "sid": 383369217,
   "address": "576 Ramsey Point",
   "Longtitude": 112.8193,
   "Latitude": -6.9965,
   "number_of_panels": 470,
   "capacity_pr_panel_in_W": 4471,
   "theo max in W": 2101370,
   "direction": 163,
   "inclination": 8,
   "effecincy": 12,
   "manufacturer": "Williamson-Pouros",
   "model": "Marquis"
 },
 {
   "id": 72,
   "sid": 894432756,
   "address": "72589 Magdeline Place",
   "Longtitude": 27.7095936,
   "Latitude": 60.5848255,
   "number_of_panels": 343,
   "capacity_pr_panel_in_W": 2983,
   "theo max in W": 1023169,
   "direction": 229,
   "inclination": 11,
   "effecincy": 18,
   "manufacturer": "Leuschke, Anderson and Raynor",
   "model": "Silverado"
 },
 {
   "id": 73,
   "sid": 287707046,
   "address": "1778 Dakota Way",
   "Longtitude": 22.051777,
   "Latitude": 51.4090959,
   "number_of_panels": 629,
   "capacity_pr_panel_in_W": 991,
   "theo max in W": 623339,
   "direction": 352,
   "inclination": 11,
   "effecincy": 20,
   "manufacturer": "Jakubowski Inc",
   "model": "Camaro"
 },
 {
   "id": 74,
   "sid": 243588738,
   "address": "0831 Quincy Drive",
   "Longtitude": 118.679751,
   "Latitude": 27.44587,
   "number_of_panels": 770,
   "capacity_pr_panel_in_W": 3767,
   "theo max in W": 2900590,
   "direction": 172,
   "inclination": 20,
   "effecincy": 21,
   "manufacturer": "Murray and Sons",
   "model": "CLS-Class"
 },
 {
   "id": 75,
   "sid": 772713892,
   "address": "797 Novick Alley",
   "Longtitude": 45.5357156,
   "Latitude": 43.1298714,
   "number_of_panels": 802,
   "capacity_pr_panel_in_W": 2890,
   "theo max in W": 2317780,
   "direction": 338,
   "inclination": 7,
   "effecincy": 21,
   "manufacturer": "Miller, DuBuque and Steuber",
   "model": "TundraMax"
 },
 {
   "id": 76,
   "sid": 36328751,
   "address": "03 Eggendart Alley",
   "Longtitude": 69.1089444,
   "Latitude": 36.0534598,
   "number_of_panels": 430,
   "capacity_pr_panel_in_W": 374,
   "theo max in W": 160820,
   "direction": 22,
   "inclination": 16,
   "effecincy": 14,
   "manufacturer": "Gleichner, Gibson and Baumbach",
   "model": "300M"
 },
 {
   "id": 77,
   "sid": 559996486,
   "address": "91924 Waxwing Terrace",
   "Longtitude": 4.6259996,
   "Latitude": 51.5749669,
   "number_of_panels": 357,
   "capacity_pr_panel_in_W": 1783,
   "theo max in W": 636531,
   "direction": 333,
   "inclination": 20,
   "effecincy": 16,
   "manufacturer": "Moore, Von and Cummerata",
   "model": "SLS AMG"
 },
 {
   "id": 78,
   "sid": 816330565,
   "address": "2140 Swallow Junction",
   "Longtitude": 21.3991045,
   "Latitude": 52.0424689,
   "number_of_panels": 424,
   "capacity_pr_panel_in_W": 2603,
   "theo max in W": 1103672,
   "direction": 262,
   "inclination": 18,
   "effecincy": 14,
   "manufacturer": "Farrell-Rosenbaum",
   "model": "300"
 },
 {
   "id": 79,
   "sid": 948238625,
   "address": "9 Pawling Pass",
   "Longtitude": -41.8402054,
   "Latitude": -12.5444681,
   "number_of_panels": 48,
   "capacity_pr_panel_in_W": 2092,
   "theo max in W": 100416,
   "direction": 244,
   "inclination": 7,
   "effecincy": 9,
   "manufacturer": "Morar LLC",
   "model": "Expedition EL"
 },
 {
   "id": 80,
   "sid": 40940875,
   "address": "1707 Fremont Center",
   "Longtitude": 126.009711,
   "Latitude": 8.955271,
   "number_of_panels": 230,
   "capacity_pr_panel_in_W": 3591,
   "theo max in W": 825930,
   "direction": 41,
   "inclination": 0,
   "effecincy": 12,
   "manufacturer": "Williamson LLC",
   "model": "Sierra 1500"
 },
 {
   "id": 81,
   "sid": 280820664,
   "address": "7 Transport Place",
   "Longtitude": 121.481725,
   "Latitude": 31.229057,
   "number_of_panels": 106,
   "capacity_pr_panel_in_W": 4952,
   "theo max in W": 524912,
   "direction": 134,
   "inclination": 9,
   "effecincy": 19,
   "manufacturer": "Herman LLC",
   "model": "XK Series"
 },
 {
   "id": 82,
   "sid": 280587669,
   "address": "529 Blaine Road",
   "Longtitude": 99.89042,
   "Latitude": 14.2277451,
   "number_of_panels": 358,
   "capacity_pr_panel_in_W": 4875,
   "theo max in W": 1745250,
   "direction": 272,
   "inclination": 13,
   "effecincy": 5,
   "manufacturer": "Quigley-Lesch",
   "model": "G-Series G10"
 },
 {
   "id": 83,
   "sid": 342406056,
   "address": "0 Lotheville Pass",
   "Longtitude": 37736,
   "Latitude": 53.9096,
   "number_of_panels": 884,
   "capacity_pr_panel_in_W": 4101,
   "theo max in W": 3625284,
   "direction": 70,
   "inclination": 8,
   "effecincy": 24,
   "manufacturer": "Emard Group",
   "model": "Legend"
 },
 {
   "id": 84,
   "sid": 639450253,
   "address": "43073 Bluejay Pass",
   "Longtitude": 94.8261424,
   "Latitude": 20.9006356,
   "number_of_panels": 993,
   "capacity_pr_panel_in_W": 487,
   "theo max in W": 483591,
   "direction": 225,
   "inclination": 13,
   "effecincy": 17,
   "manufacturer": "Kuphal, Kreiger and Mohr",
   "model": "Eclipse"
 },
 {
   "id": 85,
   "sid": 389902541,
   "address": "79 Londonderry Plaza",
   "Longtitude": 2.0376775,
   "Latitude": 43.6943099,
   "number_of_panels": 703,
   "capacity_pr_panel_in_W": 4044,
   "theo max in W": 2842932,
   "direction": 156,
   "inclination": 20,
   "effecincy": 22,
   "manufacturer": "Johnson-Ankunding",
   "model": "1500"
 },
 {
   "id": 86,
   "sid": 164868027,
   "address": "9 Kennedy Crossing",
   "Longtitude": 108.0050384,
   "Latitude": -7.1691828,
   "number_of_panels": 439,
   "capacity_pr_panel_in_W": 4789,
   "theo max in W": 2102371,
   "direction": 39,
   "inclination": 4,
   "effecincy": 13,
   "manufacturer": "Anderson-Kuhn",
   "model": "LeMans"
 },
 {
   "id": 87,
   "sid": 359141155,
   "address": "949 Westport Center",
   "Longtitude": 100.444639,
   "Latitude": 13.6855601,
   "number_of_panels": 939,
   "capacity_pr_panel_in_W": 1315,
   "theo max in W": 1234785,
   "direction": 260,
   "inclination": 16,
   "effecincy": 6,
   "manufacturer": "Harvey-Luettgen",
   "model": "F-Series"
 },
 {
   "id": 88,
   "sid": 749536826,
   "address": "15 Fremont Lane",
   "Longtitude": 125.04667,
   "Latitude": 40.38944,
   "number_of_panels": 919,
   "capacity_pr_panel_in_W": 603,
   "theo max in W": 554157,
   "direction": 122,
   "inclination": 9,
   "effecincy": 7,
   "manufacturer": "Prosacco and Sons",
   "model": "Tracker"
 },
 {
   "id": 89,
   "sid": 358741291,
   "address": "24 Banding Trail",
   "Longtitude": 99.745565,
   "Latitude": 0.6488335,
   "number_of_panels": 972,
   "capacity_pr_panel_in_W": 4842,
   "theo max in W": 4706424,
   "direction": 57,
   "inclination": 1,
   "effecincy": 6,
   "manufacturer": "Dicki-Schamberger",
   "model": "T100 Xtra"
 },
 {
   "id": 90,
   "sid": 310040436,
   "address": "1 Delaware Junction",
   "Longtitude": 25.0635741,
   "Latitude": 42.9871344,
   "number_of_panels": 744,
   "capacity_pr_panel_in_W": 203,
   "theo max in W": 151032,
   "direction": 302,
   "inclination": 2,
   "effecincy": 5,
   "manufacturer": "Hane Group",
   "model": "Sorento"
 },
 {
   "id": 91,
   "sid": 687490995,
   "address": "4558 Roxbury Alley",
   "Longtitude": -5.7434763,
   "Latitude": 41.5044882,
   "number_of_panels": 64,
   "capacity_pr_panel_in_W": 3472,
   "theo max in W": 222208,
   "direction": 295,
   "inclination": 11,
   "effecincy": 5,
   "manufacturer": "Howe, Mueller and Mohr",
   "model": "Eclipse"
 },
 {
   "id": 92,
   "sid": 547943275,
   "address": "9 Caliangt Court",
   "Longtitude": 18.8697867,
   "Latitude": 50.1558976,
   "number_of_panels": 249,
   "capacity_pr_panel_in_W": 913,
   "theo max in W": 227337,
   "direction": 100,
   "inclination": 5,
   "effecincy": 23,
   "manufacturer": "Paucek, Wisozk and Grant",
   "model": "Toronado"
 },
 {
   "id": 93,
   "sid": 43981694,
   "address": "088 Knutson Trail",
   "Longtitude": 14.0197219,
   "Latitude": 46.4476799,
   "number_of_panels": 190,
   "capacity_pr_panel_in_W": 746,
   "theo max in W": 141740,
   "direction": 39,
   "inclination": 10,
   "effecincy": 19,
   "manufacturer": "Gutmann, VonRueden and Ernser",
   "model": "Envoy XL"
 },
 {
   "id": 94,
   "sid": 842610150,
   "address": "484 Reinke Terrace",
   "Longtitude": 114.309091,
   "Latitude": 30.600064,
   "number_of_panels": 526,
   "capacity_pr_panel_in_W": 1905,
   "theo max in W": 1002030,
   "direction": 174,
   "inclination": 3,
   "effecincy": 14,
   "manufacturer": "Schaefer Group",
   "model": "Mazda5"
 },
 {
   "id": 95,
   "sid": 334190429,
   "address": "932 Riverside Street",
   "Longtitude": 16.3083468,
   "Latitude": 58.1628402,
   "number_of_panels": 313,
   "capacity_pr_panel_in_W": 1245,
   "theo max in W": 389685,
   "direction": 283,
   "inclination": 18,
   "effecincy": 9,
   "manufacturer": "Von LLC",
   "model": "Eldorado"
 },
 {
   "id": 96,
   "sid": 662572605,
   "address": "639 Donald Circle",
   "Longtitude": -52.5745556,
   "Latitude": -28.832995,
   "number_of_panels": 819,
   "capacity_pr_panel_in_W": 3660,
   "theo max in W": 2997540,
   "direction": 111,
   "inclination": 13,
   "effecincy": 12,
   "manufacturer": "Sporer-Gleason",
   "model": "Accord"
 },
 {
   "id": 97,
   "sid": 326809030,
   "address": "555 Blue Bill Park Junction",
   "Longtitude": -79.4760133,
   "Latitude": -7.2452522,
   "number_of_panels": 920,
   "capacity_pr_panel_in_W": 504,
   "theo max in W": 463680,
   "direction": 148,
   "inclination": 12,
   "effecincy": 8,
   "manufacturer": "Kuhic, Bruen and Parisian",
   "model": "Ram 2500"
 },
 {
   "id": 98,
   "sid": 468759584,
   "address": "7554 Riverside Center",
   "Longtitude": -73.9249692,
   "Latitude": -14.0262695,
   "number_of_panels": 791,
   "capacity_pr_panel_in_W": 767,
   "theo max in W": 606697,
   "direction": 269,
   "inclination": 13,
   "effecincy": 24,
   "manufacturer": "Kuhn, Ruecker and Blick",
   "model": "Explorer"
 },
 {
   "id": 99,
   "sid": 959757207,
   "address": "76 Vermont Trail",
   "Longtitude": -75.6499025,
   "Latitude": 41.3879567,
   "number_of_panels": 516,
   "capacity_pr_panel_in_W": 720,
   "theo max in W": 371520,
   "direction": 272,
   "inclination": 13,
   "effecincy": 14,
   "manufacturer": "Murray and Sons",
   "model": "Mighty Max"
 },
 {
   "id": 100,
   "sid": 772076537,
   "address": "552 6th Way",
   "Longtitude": 109.864472,
   "Latitude": 29.648686,
   "number_of_panels": 286,
   "capacity_pr_panel_in_W": 3694,
   "theo max in W": 1056484,
   "direction": 118,
   "inclination": 0,
   "effecincy": 15,
   "manufacturer": "Haag Inc",
   "model": "Sierra"
 },
 {
   "id": 101,
   "sid": 11501181,
   "address": "5245 Dennis Point",
   "Longtitude": 6.8029489,
   "Latitude": 6.1413122,
   "number_of_panels": 442,
   "capacity_pr_panel_in_W": 3352,
   "theo max in W": 1481584,
   "direction": 192,
   "inclination": 7,
   "effecincy": 23,
   "manufacturer": "Morissette-Greenholt",
   "model": "Highlander"
 },
 {
   "id": 102,
   "sid": 956388828,
   "address": "2973 Pine View Plaza",
   "Longtitude": 29.24905,
   "Latitude": -26.94087,
   "number_of_panels": 258,
   "capacity_pr_panel_in_W": 2421,
   "theo max in W": 624618,
   "direction": 238,
   "inclination": 5,
   "effecincy": 15,
   "manufacturer": "Watsica LLC",
   "model": "SLK-Class"
 },
 {
   "id": 103,
   "sid": 123906988,
   "address": "3 Esch Center",
   "Longtitude": 1.3585474,
   "Latitude": 44.0179842,
   "number_of_panels": 331,
   "capacity_pr_panel_in_W": 586,
   "theo max in W": 193966,
   "direction": 84,
   "inclination": 12,
   "effecincy": 22,
   "manufacturer": "Vandervort-Leannon",
   "model": "Roadmaster"
 },
 {
   "id": 104,
   "sid": 800115728,
   "address": "97 Quincy Junction",
   "Longtitude": -39.465738,
   "Latitude": -13.7968333,
   "number_of_panels": 193,
   "capacity_pr_panel_in_W": 4708,
   "theo max in W": 908644,
   "direction": 17,
   "inclination": 4,
   "effecincy": 17,
   "manufacturer": "Stehr, Boyer and Flatley",
   "model": "Marauder"
 },
 {
   "id": 105,
   "sid": 154612312,
   "address": "2105 Continental Place",
   "Longtitude": 35.0980514,
   "Latitude": 33.0085361,
   "number_of_panels": 998,
   "capacity_pr_panel_in_W": 1020,
   "theo max in W": 1017960,
   "direction": 328,
   "inclination": 17,
   "effecincy": 19,
   "manufacturer": "Beahan-Boyle",
   "model": "Mirage"
 },
 {
   "id": 106,
   "sid": 924140536,
   "address": "0535 Alpine Trail",
   "Longtitude": 109.6745916,
   "Latitude": -6.8898362,
   "number_of_panels": 46,
   "capacity_pr_panel_in_W": 3877,
   "theo max in W": 178342,
   "direction": 41,
   "inclination": 1,
   "effecincy": 15,
   "manufacturer": "Stoltenberg, Lind and Barton",
   "model": "A8"
 },
 {
   "id": 107,
   "sid": 934318615,
   "address": "07161 Elka Parkway",
   "Longtitude": -77.7294705,
   "Latitude": -8.0212573,
   "number_of_panels": 463,
   "capacity_pr_panel_in_W": 4050,
   "theo max in W": 1875150,
   "direction": 297,
   "inclination": 19,
   "effecincy": 7,
   "manufacturer": "Hagenes-O'Conner",
   "model": "C-Class"
 },
 {
   "id": 108,
   "sid": 998281906,
   "address": "23 Ridge Oak Street",
   "Longtitude": 16.3287199,
   "Latitude": -17.4850319,
   "number_of_panels": 925,
   "capacity_pr_panel_in_W": 3305,
   "theo max in W": 3057125,
   "direction": 63,
   "inclination": 13,
   "effecincy": 10,
   "manufacturer": "Hermiston Inc",
   "model": "Ram"
 },
 {
   "id": 109,
   "sid": 693953553,
   "address": "34 5th Trail",
   "Longtitude": 5.8978018,
   "Latitude": 43.4945737,
   "number_of_panels": 595,
   "capacity_pr_panel_in_W": 3466,
   "theo max in W": 2062270,
   "direction": 34,
   "inclination": 17,
   "effecincy": 18,
   "manufacturer": "Beatty Inc",
   "model": "SL65 AMG"
 },
 {
   "id": 110,
   "sid": 564247590,
   "address": "51714 3rd Center",
   "Longtitude": 121.653543,
   "Latitude": 17.902174,
   "number_of_panels": 273,
   "capacity_pr_panel_in_W": 2995,
   "theo max in W": 817635,
   "direction": 5,
   "inclination": 16,
   "effecincy": 16,
   "manufacturer": "Feeney Inc",
   "model": "900"
 },
 {
   "id": 111,
   "sid": 231503933,
   "address": "9736 Hoffman Hill",
   "Longtitude": 120.056029,
   "Latitude": 30.131784,
   "number_of_panels": 738,
   "capacity_pr_panel_in_W": 3606,
   "theo max in W": 2661228,
   "direction": 279,
   "inclination": 2,
   "effecincy": 13,
   "manufacturer": "Wintheiser and Sons",
   "model": "Lancer"
 },
 {
   "id": 112,
   "sid": 499411772,
   "address": "32026 Stephen Trail",
   "Longtitude": -82.1616,
   "Latitude": 43.03596,
   "number_of_panels": 457,
   "capacity_pr_panel_in_W": 3108,
   "theo max in W": 1420356,
   "direction": 214,
   "inclination": 13,
   "effecincy": 17,
   "manufacturer": "Stehr, Howe and Jones",
   "model": "Magnum"
 },
 {
   "id": 113,
   "sid": 874279322,
   "address": "1 Redwing Road",
   "Longtitude": 55.6720592,
   "Latitude": 58.00284,
   "number_of_panels": 26,
   "capacity_pr_panel_in_W": 1831,
   "theo max in W": 47606,
   "direction": 34,
   "inclination": 0,
   "effecincy": 5,
   "manufacturer": "Parker and Sons",
   "model": "Z3"
 },
 {
   "id": 114,
   "sid": 929367390,
   "address": "29575 Ruskin Road",
   "Longtitude": -9.252733,
   "Latitude": 38.9374004,
   "number_of_panels": 536,
   "capacity_pr_panel_in_W": 1699,
   "theo max in W": 910664,
   "direction": 336,
   "inclination": 6,
   "effecincy": 15,
   "manufacturer": "Hills-Keeling",
   "model": "Land Cruiser"
 },
 {
   "id": 115,
   "sid": 727633476,
   "address": "40 Scott Parkway",
   "Longtitude": 141.5437532,
   "Latitude": 38.7333101,
   "number_of_panels": 889,
   "capacity_pr_panel_in_W": 1723,
   "theo max in W": 1531747,
   "direction": 341,
   "inclination": 10,
   "effecincy": 9,
   "manufacturer": "VonRueden-Wilkinson",
   "model": "S10 Blazer"
 },
 {
   "id": 116,
   "sid": 818847681,
   "address": "80 Orin Parkway",
   "Longtitude": 112.833836,
   "Latitude": 28.353912,
   "number_of_panels": 548,
   "capacity_pr_panel_in_W": 1315,
   "theo max in W": 720620,
   "direction": 183,
   "inclination": 2,
   "effecincy": 24,
   "manufacturer": "Schuster, Sauer and Reichel",
   "model": "Model T"
 },
 {
   "id": 117,
   "sid": 320968976,
   "address": "3 Vermont Crossing",
   "Longtitude": 0.3697581,
   "Latitude": 46.6698573,
   "number_of_panels": 988,
   "capacity_pr_panel_in_W": 737,
   "theo max in W": 728156,
   "direction": 36,
   "inclination": 0,
   "effecincy": 8,
   "manufacturer": "Lesch-Sanford",
   "model": "Explorer"
 },
 {
   "id": 118,
   "sid": 212640657,
   "address": "31 Pennsylvania Court",
   "Longtitude": 110.6535448,
   "Latitude": 47.3178096,
   "number_of_panels": 87,
   "capacity_pr_panel_in_W": 4465,
   "theo max in W": 388455,
   "direction": 69,
   "inclination": 7,
   "effecincy": 5,
   "manufacturer": "Morar Group",
   "model": "Cutlass Supreme"
 },
 {
   "id": 119,
   "sid": 408966156,
   "address": "5337 Kings Drive",
   "Longtitude": -61.2306446,
   "Latitude": 13.0100514,
   "number_of_panels": 681,
   "capacity_pr_panel_in_W": 3835,
   "theo max in W": 2611635,
   "direction": 338,
   "inclination": 15,
   "effecincy": 12,
   "manufacturer": "Kub Inc",
   "model": "Caprice Classic"
 },
 {
   "id": 120,
   "sid": 498707607,
   "address": "420 Talmadge Pass",
   "Longtitude": 17.953415,
   "Latitude": 62.6291355,
   "number_of_panels": 708,
   "capacity_pr_panel_in_W": 1246,
   "theo max in W": 882168,
   "direction": 99,
   "inclination": 1,
   "effecincy": 8,
   "manufacturer": "Heaney Inc",
   "model": "CL-Class"
 },
 {
   "id": 121,
   "sid": 472817218,
   "address": "37090 Knutson Avenue",
   "Longtitude": 111.3203,
   "Latitude": -6.9707,
   "number_of_panels": 708,
   "capacity_pr_panel_in_W": 532,
   "theo max in W": 376656,
   "direction": 220,
   "inclination": 15,
   "effecincy": 13,
   "manufacturer": "Hagenes, Powlowski and Harris",
   "model": "RL"
 },
 {
   "id": 122,
   "sid": 414558125,
   "address": "6 Clyde Gallagher Road",
   "Longtitude": 70.9139437,
   "Latitude": 29.3830191,
   "number_of_panels": 511,
   "capacity_pr_panel_in_W": 4263,
   "theo max in W": 2178393,
   "direction": 221,
   "inclination": 3,
   "effecincy": 9,
   "manufacturer": "Boyer Inc",
   "model": "SJ"
 },
 {
   "id": 123,
   "sid": 264269855,
   "address": "63 Sundown Point",
   "Longtitude": 33.8116067,
   "Latitude": 27.2578957,
   "number_of_panels": 842,
   "capacity_pr_panel_in_W": 2406,
   "theo max in W": 2025852,
   "direction": 321,
   "inclination": 11,
   "effecincy": 23,
   "manufacturer": "Conroy and Sons",
   "model": "E150"
 },
 {
   "id": 124,
   "sid": 932174503,
   "address": "11 Di Loreto Lane",
   "Longtitude": 116.681972,
   "Latitude": 23.354091,
   "number_of_panels": 934,
   "capacity_pr_panel_in_W": 517,
   "theo max in W": 482878,
   "direction": 7,
   "inclination": 10,
   "effecincy": 14,
   "manufacturer": "Cremin Group",
   "model": "S70"
 },
 {
   "id": 125,
   "sid": 864313369,
   "address": "4 Gale Park",
   "Longtitude": 61.3396043,
   "Latitude": 55.1795454,
   "number_of_panels": 344,
   "capacity_pr_panel_in_W": 1710,
   "theo max in W": 588240,
   "direction": 173,
   "inclination": 6,
   "effecincy": 25,
   "manufacturer": "Bednar Group",
   "model": "Mazda5"
 },
 {
   "id": 126,
   "sid": 770813757,
   "address": "3 Brentwood Court",
   "Longtitude": -77.3469946,
   "Latitude": 37.9429182,
   "number_of_panels": 60,
   "capacity_pr_panel_in_W": 483,
   "theo max in W": 28980,
   "direction": 330,
   "inclination": 10,
   "effecincy": 7,
   "manufacturer": "Kunde Group",
   "model": "D150"
 },
 {
   "id": 127,
   "sid": 148763195,
   "address": "1 Meadow Valley Terrace",
   "Longtitude": 114.109497,
   "Latitude": 22.396428,
   "number_of_panels": 661,
   "capacity_pr_panel_in_W": 1897,
   "theo max in W": 1253917,
   "direction": 115,
   "inclination": 5,
   "effecincy": 17,
   "manufacturer": "Thiel-Cummings",
   "model": "F150"
 },
 {
   "id": 128,
   "sid": 570352356,
   "address": "77 Little Fleur Plaza",
   "Longtitude": -8.2327446,
   "Latitude": 40.9183403,
   "number_of_panels": 764,
   "capacity_pr_panel_in_W": 4490,
   "theo max in W": 3430360,
   "direction": 209,
   "inclination": 1,
   "effecincy": 11,
   "manufacturer": "Maggio-Fritsch",
   "model": "Pathfinder"
 },
 {
   "id": 129,
   "sid": 384125420,
   "address": "2385 Hovde Way",
   "Longtitude": -76.7284559,
   "Latitude": 8.0951588,
   "number_of_panels": 437,
   "capacity_pr_panel_in_W": 1985,
   "theo max in W": 867445,
   "direction": 175,
   "inclination": 18,
   "effecincy": 23,
   "manufacturer": "Herman, Jast and Bergnaum",
   "model": "XK Series"
 },
 {
   "id": 130,
   "sid": 830387753,
   "address": "13 Oak Street",
   "Longtitude": 94.80205,
   "Latitude": 45.8309803,
   "number_of_panels": 785,
   "capacity_pr_panel_in_W": 1369,
   "theo max in W": 1074665,
   "direction": 162,
   "inclination": 13,
   "effecincy": 12,
   "manufacturer": "Corkery, Schamberger and Hagenes",
   "model": "Eclipse"
 },
 {
   "id": 131,
   "sid": 393469806,
   "address": "132 Warbler Plaza",
   "Longtitude": -51.7601166,
   "Latitude": -24.7592533,
   "number_of_panels": 779,
   "capacity_pr_panel_in_W": 1048,
   "theo max in W": 816392,
   "direction": 323,
   "inclination": 19,
   "effecincy": 24,
   "manufacturer": "Thompson-Renner",
   "model": "5 Series"
 },
 {
   "id": 132,
   "sid": 789820273,
   "address": "49054 Hagan Road",
   "Longtitude": 55.8727412,
   "Latitude": 58.0819675,
   "number_of_panels": 661,
   "capacity_pr_panel_in_W": 2726,
   "theo max in W": 1801886,
   "direction": 240,
   "inclination": 8,
   "effecincy": 22,
   "manufacturer": "Parisian Inc",
   "model": "Traverse"
 },
 {
   "id": 133,
   "sid": 809468273,
   "address": "27 Fieldstone Way",
   "Longtitude": 19.2774975,
   "Latitude": 49.666675,
   "number_of_panels": 493,
   "capacity_pr_panel_in_W": 2452,
   "theo max in W": 1208836,
   "direction": 81,
   "inclination": 4,
   "effecincy": 10,
   "manufacturer": "Roberts-Wiegand",
   "model": "911"
 },
 {
   "id": 134,
   "sid": 918161162,
   "address": "247 Upham Place",
   "Longtitude": 39.0848844,
   "Latitude": 44.0752881,
   "number_of_panels": 669,
   "capacity_pr_panel_in_W": 3444,
   "theo max in W": 2304036,
   "direction": 197,
   "inclination": 11,
   "effecincy": 18,
   "manufacturer": "Yundt-Tillman",
   "model": "Mariner"
 },
 {
   "id": 135,
   "sid": 576111425,
   "address": "85213 Brickson Park Trail",
   "Longtitude": -16.23333,
   "Latitude": 14.63333,
   "number_of_panels": 667,
   "capacity_pr_panel_in_W": 1279,
   "theo max in W": 853093,
   "direction": 233,
   "inclination": 12,
   "effecincy": 12,
   "manufacturer": "Harber, King and Hayes",
   "model": "Sprinter 3500"
 },
 {
   "id": 136,
   "sid": 383837222,
   "address": "4 East Trail",
   "Longtitude": 22.6377432,
   "Latitude": 32.755613,
   "number_of_panels": 94,
   "capacity_pr_panel_in_W": 4584,
   "theo max in W": 430896,
   "direction": 178,
   "inclination": 12,
   "effecincy": 14,
   "manufacturer": "Paucek, Grimes and Lehner",
   "model": "TundraMax"
 },
 {
   "id": 137,
   "sid": 737494123,
   "address": "51 Raven Terrace",
   "Longtitude": 3.7139045,
   "Latitude": 51.0003903,
   "number_of_panels": 223,
   "capacity_pr_panel_in_W": 4946,
   "theo max in W": 1102958,
   "direction": 239,
   "inclination": 5,
   "effecincy": 23,
   "manufacturer": "Dibbert-Mraz",
   "model": "Focus"
 },
 {
   "id": 138,
   "sid": 402721142,
   "address": "09 Schlimgen Alley",
   "Longtitude": 110.166477,
   "Latitude": 29.474413,
   "number_of_panels": 156,
   "capacity_pr_panel_in_W": 483,
   "theo max in W": 75348,
   "direction": 197,
   "inclination": 9,
   "effecincy": 11,
   "manufacturer": "Hagenes LLC",
   "model": "SL-Class"
 },
 {
   "id": 139,
   "sid": 614780183,
   "address": "070 Northwestern Pass",
   "Longtitude": -91.0891378,
   "Latitude": 14.5444432,
   "number_of_panels": 847,
   "capacity_pr_panel_in_W": 4072,
   "theo max in W": 3448984,
   "direction": 298,
   "inclination": 1,
   "effecincy": 15,
   "manufacturer": "Oberbrunner, Wehner and Lockman",
   "model": "MX-6"
 },
 {
   "id": 140,
   "sid": 202656246,
   "address": "52985 Old Gate Drive",
   "Longtitude": 100.051784,
   "Latitude": 17.9835237,
   "number_of_panels": 741,
   "capacity_pr_panel_in_W": 1314,
   "theo max in W": 973674,
   "direction": 88,
   "inclination": 13,
   "effecincy": 22,
   "manufacturer": "Larkin, Stark and Barton",
   "model": "Vandura G2500"
 },
 {
   "id": 141,
   "sid": 194566705,
   "address": "8 Raven Drive",
   "Longtitude": 100.5858786,
   "Latitude": -0.8808728,
   "number_of_panels": 174,
   "capacity_pr_panel_in_W": 1870,
   "theo max in W": 325380,
   "direction": 270,
   "inclination": 19,
   "effecincy": 12,
   "manufacturer": "Ziemann, Mosciski and Waters",
   "model": "Taurus"
 },
 {
   "id": 142,
   "sid": 333896847,
   "address": "17 Washington Center",
   "Longtitude": 122.9768634,
   "Latitude": -8.3351552,
   "number_of_panels": 234,
   "capacity_pr_panel_in_W": 2580,
   "theo max in W": 603720,
   "direction": 15,
   "inclination": 2,
   "effecincy": 13,
   "manufacturer": "Quigley, Becker and Rempel",
   "model": "Astra"
 },
 {
   "id": 143,
   "sid": 706354972,
   "address": "251 Hayes Plaza",
   "Longtitude": 126.1255129,
   "Latitude": 7.6115877,
   "number_of_panels": 627,
   "capacity_pr_panel_in_W": 4212,
   "theo max in W": 2640924,
   "direction": 167,
   "inclination": 20,
   "effecincy": 15,
   "manufacturer": "Conn LLC",
   "model": "Montero"
 },
 {
   "id": 144,
   "sid": 194185898,
   "address": "6833 Monterey Place",
   "Longtitude": 116.4559849,
   "Latitude": 39.9317949,
   "number_of_panels": 872,
   "capacity_pr_panel_in_W": 1545,
   "theo max in W": 1347240,
   "direction": 40,
   "inclination": 6,
   "effecincy": 16,
   "manufacturer": "Mann, Ledner and Olson",
   "model": "SLK-Class"
 },
 {
   "id": 145,
   "sid": 691017932,
   "address": "05 Londonderry Center",
   "Longtitude": 7.2248378,
   "Latitude": 13.0930867,
   "number_of_panels": 775,
   "capacity_pr_panel_in_W": 356,
   "theo max in W": 275900,
   "direction": 219,
   "inclination": 5,
   "effecincy": 25,
   "manufacturer": "Cummerata Group",
   "model": "E150"
 },
 {
   "id": 146,
   "sid": 778913778,
   "address": "57777 Ohio Way",
   "Longtitude": -35.6095474,
   "Latitude": -9.3002357,
   "number_of_panels": 17,
   "capacity_pr_panel_in_W": 2056,
   "theo max in W": 34952,
   "direction": 149,
   "inclination": 20,
   "effecincy": 17,
   "manufacturer": "Denesik LLC",
   "model": "Sorento"
 },
 {
   "id": 147,
   "sid": 333008089,
   "address": "34 Magdeline Road",
   "Longtitude": 130.5200852,
   "Latitude": 33.7311229,
   "number_of_panels": 909,
   "capacity_pr_panel_in_W": 2203,
   "theo max in W": 2002527,
   "direction": 71,
   "inclination": 1,
   "effecincy": 16,
   "manufacturer": "Turcotte-Volkman",
   "model": "Express 3500"
 },
 {
   "id": 148,
   "sid": 637230147,
   "address": "16 Forest Dale Street",
   "Longtitude": -89.76667,
   "Latitude": 14.51667,
   "number_of_panels": 878,
   "capacity_pr_panel_in_W": 2949,
   "theo max in W": 2589222,
   "direction": 146,
   "inclination": 7,
   "effecincy": 23,
   "manufacturer": "Yundt and Sons",
   "model": "Voyager"
 },
 {
   "id": 149,
   "sid": 974869539,
   "address": "5 Tomscot Plaza",
   "Longtitude": 35.04532,
   "Latitude": 31.88743,
   "number_of_panels": 208,
   "capacity_pr_panel_in_W": 4928,
   "theo max in W": 1025024,
   "direction": 358,
   "inclination": 5,
   "effecincy": 9,
   "manufacturer": "Durgan and Sons",
   "model": "Ranger"
 },
 {
   "id": 150,
   "sid": 564025428,
   "address": "830 Manufacturers Park",
   "Longtitude": 11.0137723,
   "Latitude": 50.9977219,
   "number_of_panels": 255,
   "capacity_pr_panel_in_W": 4415,
   "theo max in W": 1125825,
   "direction": 297,
   "inclination": 6,
   "effecincy": 14,
   "manufacturer": "O'Keefe Group",
   "model": "911"
 },
 {
   "id": 151,
   "sid": 558393008,
   "address": "4 Roth Hill",
   "Longtitude": -60.6923382,
   "Latitude": -32.9285798,
   "number_of_panels": 18,
   "capacity_pr_panel_in_W": 4493,
   "theo max in W": 80874,
   "direction": 67,
   "inclination": 10,
   "effecincy": 5,
   "manufacturer": "Oberbrunner-Nikolaus",
   "model": "X3"
 },
 {
   "id": 152,
   "sid": 83574800,
   "address": "8 Doe Crossing Road",
   "Longtitude": -79.124367,
   "Latitude": -6.924112,
   "number_of_panels": 296,
   "capacity_pr_panel_in_W": 1154,
   "theo max in W": 341584,
   "direction": 136,
   "inclination": 6,
   "effecincy": 13,
   "manufacturer": "Koelpin, Crooks and Hills",
   "model": "Integra"
 },
 {
   "id": 153,
   "sid": 745664125,
   "address": "18676 2nd Way",
   "Longtitude": 22.6098737,
   "Latitude": 44.6035552,
   "number_of_panels": 209,
   "capacity_pr_panel_in_W": 927,
   "theo max in W": 193743,
   "direction": 45,
   "inclination": 18,
   "effecincy": 12,
   "manufacturer": "Russel-Towne",
   "model": "Regal"
 },
 {
   "id": 154,
   "sid": 224764209,
   "address": "0078 Prairieview Circle",
   "Longtitude": 116.165777,
   "Latitude": 23.297493,
   "number_of_panels": 271,
   "capacity_pr_panel_in_W": 1973,
   "theo max in W": 534683,
   "direction": 153,
   "inclination": 10,
   "effecincy": 6,
   "manufacturer": "Kuvalis, Sipes and Crist",
   "model": "Express 3500"
 },
 {
   "id": 155,
   "sid": 693435217,
   "address": "0675 Blackbird Junction",
   "Longtitude": 0.839002,
   "Latitude": 48.3156651,
   "number_of_panels": 482,
   "capacity_pr_panel_in_W": 2912,
   "theo max in W": 1403584,
   "direction": 186,
   "inclination": 6,
   "effecincy": 5,
   "manufacturer": "Windler, Turcotte and Corwin",
   "model": "CL-Class"
 },
 {
   "id": 156,
   "sid": 125049242,
   "address": "64 Fairview Circle",
   "Longtitude": 111.353125,
   "Latitude": 27.539403,
   "number_of_panels": 276,
   "capacity_pr_panel_in_W": 719,
   "theo max in W": 198444,
   "direction": 215,
   "inclination": 0,
   "effecincy": 6,
   "manufacturer": "Mertz Inc",
   "model": "MDX"
 },
 {
   "id": 157,
   "sid": 847355646,
   "address": "4713 Lyons Terrace",
   "Longtitude": 112.132488,
   "Latitude": 34.728584,
   "number_of_panels": 190,
   "capacity_pr_panel_in_W": 3840,
   "theo max in W": 729600,
   "direction": 357,
   "inclination": 19,
   "effecincy": 13,
   "manufacturer": "Wisoky and Sons",
   "model": "Seville"
 },
 {
   "id": 158,
   "sid": 250756821,
   "address": "42424 Autumn Leaf Pass",
   "Longtitude": 123.5560069,
   "Latitude": -8.3848454,
   "number_of_panels": 738,
   "capacity_pr_panel_in_W": 4262,
   "theo max in W": 3145356,
   "direction": 293,
   "inclination": 12,
   "effecincy": 9,
   "manufacturer": "Jenkins, Steuber and Gibson",
   "model": "Seville"
 },
 {
   "id": 159,
   "sid": 425962955,
   "address": "34 Golden Leaf Point",
   "Longtitude": -7.9886104,
   "Latitude": 40.2690451,
   "number_of_panels": 65,
   "capacity_pr_panel_in_W": 734,
   "theo max in W": 47710,
   "direction": 171,
   "inclination": 18,
   "effecincy": 17,
   "manufacturer": "Hansen-Greenholt",
   "model": "Highlander"
 },
 {
   "id": 160,
   "sid": 146657379,
   "address": "06 Sunnyside Parkway",
   "Longtitude": 108.4928912,
   "Latitude": -7.0837242,
   "number_of_panels": 861,
   "capacity_pr_panel_in_W": 2690,
   "theo max in W": 2316090,
   "direction": 298,
   "inclination": 1,
   "effecincy": 23,
   "manufacturer": "Casper, Pacocha and Kilback",
   "model": "Amigo"
 },
 {
   "id": 161,
   "sid": 197742533,
   "address": "67 Cottonwood Avenue",
   "Longtitude": 109.8633501,
   "Latitude": -7.0179759,
   "number_of_panels": 19,
   "capacity_pr_panel_in_W": 2326,
   "theo max in W": 44194,
   "direction": 80,
   "inclination": 7,
   "effecincy": 16,
   "manufacturer": "Feeney-Shanahan",
   "model": "V8"
 },
 {
   "id": 162,
   "sid": 819775385,
   "address": "14506 Novick Trail",
   "Longtitude": 42.27111,
   "Latitude": 54.76778,
   "number_of_panels": 609,
   "capacity_pr_panel_in_W": 2946,
   "theo max in W": 1794114,
   "direction": 133,
   "inclination": 17,
   "effecincy": 12,
   "manufacturer": "Hoeger, Hayes and Fay",
   "model": "Caravan"
 },
 {
   "id": 163,
   "sid": 76289479,
   "address": "077 Manufacturers Court",
   "Longtitude": 115.809852,
   "Latitude": 31.345009,
   "number_of_panels": 736,
   "capacity_pr_panel_in_W": 3762,
   "theo max in W": 2768832,
   "direction": 53,
   "inclination": 8,
   "effecincy": 22,
   "manufacturer": "Cartwright, Abbott and Schmidt",
   "model": "Contour"
 },
 {
   "id": 164,
   "sid": 342267776,
   "address": "2 Utah Drive",
   "Longtitude": 101.14473,
   "Latitude": 24.187566,
   "number_of_panels": 668,
   "capacity_pr_panel_in_W": 4429,
   "theo max in W": 2958572,
   "direction": 323,
   "inclination": 19,
   "effecincy": 20,
   "manufacturer": "O'Hara, Mraz and Cormier",
   "model": "Z4"
 },
 {
   "id": 165,
   "sid": 229400279,
   "address": "73 Crest Line Plaza",
   "Longtitude": 15.7056221,
   "Latitude": 51.8186111,
   "number_of_panels": 317,
   "capacity_pr_panel_in_W": 1711,
   "theo max in W": 542387,
   "direction": 242,
   "inclination": 17,
   "effecincy": 22,
   "manufacturer": "Schamberger-Gusikowski",
   "model": "Accent"
 },
 {
   "id": 166,
   "sid": 826379247,
   "address": "929 Shoshone Plaza",
   "Longtitude": 44.0546008,
   "Latitude": 42.8509219,
   "number_of_panels": 221,
   "capacity_pr_panel_in_W": 3788,
   "theo max in W": 837148,
   "direction": 254,
   "inclination": 14,
   "effecincy": 8,
   "manufacturer": "Kuvalis-Gibson",
   "model": "Impreza"
 },
 {
   "id": 167,
   "sid": 100427634,
   "address": "5590 Heffernan Road",
   "Longtitude": 18.9959549,
   "Latitude": 44.6939722,
   "number_of_panels": 909,
   "capacity_pr_panel_in_W": 1840,
   "theo max in W": 1672560,
   "direction": 300,
   "inclination": 2,
   "effecincy": 6,
   "manufacturer": "Lehner, Littel and Ratke",
   "model": "626"
 },
 {
   "id": 168,
   "sid": 186696324,
   "address": "5413 Eliot Crossing",
   "Longtitude": 102.026135,
   "Latitude": 14.6710601,
   "number_of_panels": 86,
   "capacity_pr_panel_in_W": 3371,
   "theo max in W": 289906,
   "direction": 234,
   "inclination": 18,
   "effecincy": 17,
   "manufacturer": "Gerhold LLC",
   "model": "RAV4"
 },
 {
   "id": 169,
   "sid": 633300138,
   "address": "91912 Fallview Terrace",
   "Longtitude": 57.6558829,
   "Latitude": 58.9607635,
   "number_of_panels": 819,
   "capacity_pr_panel_in_W": 3059,
   "theo max in W": 2505321,
   "direction": 127,
   "inclination": 10,
   "effecincy": 20,
   "manufacturer": "Rolfson and Sons",
   "model": "Chariot"
 },
 {
   "id": 170,
   "sid": 23398808,
   "address": "09 Kingsford Crossing",
   "Longtitude": 124.454363,
   "Latitude": 6.83249,
   "number_of_panels": 214,
   "capacity_pr_panel_in_W": 1634,
   "theo max in W": 349676,
   "direction": 148,
   "inclination": 11,
   "effecincy": 11,
   "manufacturer": "Pagac-O'Hara",
   "model": "RS 6"
 },
 {
   "id": 171,
   "sid": 400384169,
   "address": "9089 Commercial Drive",
   "Longtitude": 114.3311718,
   "Latitude": 4.6101062,
   "number_of_panels": 486,
   "capacity_pr_panel_in_W": 2015,
   "theo max in W": 979290,
   "direction": 167,
   "inclination": 3,
   "effecincy": 5,
   "manufacturer": "Daugherty, Grady and Reinger",
   "model": "Discovery Series II"
 },
 {
   "id": 172,
   "sid": 105128291,
   "address": "5 Union Park",
   "Longtitude": -38.0850339,
   "Latitude": -5.1443118,
   "number_of_panels": 318,
   "capacity_pr_panel_in_W": 3705,
   "theo max in W": 1178190,
   "direction": 289,
   "inclination": 3,
   "effecincy": 15,
   "manufacturer": "Kuvalis, Miller and O'Hara",
   "model": "2500 Club Coupe"
 },
 {
   "id": 173,
   "sid": 28728381,
   "address": "628 Gina Street",
   "Longtitude": 120754,
   "Latitude": -10.0396,
   "number_of_panels": 408,
   "capacity_pr_panel_in_W": 4717,
   "theo max in W": 1924536,
   "direction": 41,
   "inclination": 18,
   "effecincy": 9,
   "manufacturer": "Gleichner Group",
   "model": "Town & Country"
 },
 {
   "id": 174,
   "sid": 804276633,
   "address": "47 Hovde Trail",
   "Longtitude": 14.4161297,
   "Latitude": 48.6514469,
   "number_of_panels": 231,
   "capacity_pr_panel_in_W": 2714,
   "theo max in W": 626934,
   "direction": 309,
   "inclination": 2,
   "effecincy": 12,
   "manufacturer": "Paucek-Miller",
   "model": "Dakota Club"
 },
 {
   "id": 175,
   "sid": 96036135,
   "address": "2525 Cody Junction",
   "Longtitude": -49.2473044,
   "Latitude": -16.820257,
   "number_of_panels": 420,
   "capacity_pr_panel_in_W": 3881,
   "theo max in W": 1630020,
   "direction": 3,
   "inclination": 2,
   "effecincy": 19,
   "manufacturer": "Schumm-Rohan",
   "model": "Tracker"
 },
 {
   "id": 176,
   "sid": 636754905,
   "address": "74907 Shasta Street",
   "Longtitude": 122.850015,
   "Latitude": 7.584057,
   "number_of_panels": 738,
   "capacity_pr_panel_in_W": 2900,
   "theo max in W": 2140200,
   "direction": 196,
   "inclination": 0,
   "effecincy": 9,
   "manufacturer": "Quigley, Brown and Powlowski",
   "model": "Cirrus"
 },
 {
   "id": 177,
   "sid": 488786313,
   "address": "31897 Melody Trail",
   "Longtitude": 82.353656,
   "Latitude": 44.840524,
   "number_of_panels": 107,
   "capacity_pr_panel_in_W": 4344,
   "theo max in W": 464808,
   "direction": 79,
   "inclination": 11,
   "effecincy": 21,
   "manufacturer": "Kunze Group",
   "model": "NSX"
 },
 {
   "id": 178,
   "sid": 352410652,
   "address": "96 American Pass",
   "Longtitude": 45.2711048,
   "Latitude": 40.1442308,
   "number_of_panels": 535,
   "capacity_pr_panel_in_W": 4262,
   "theo max in W": 2280170,
   "direction": 176,
   "inclination": 20,
   "effecincy": 14,
   "manufacturer": "McGlynn LLC",
   "model": "Regal"
 },
 {
   "id": 179,
   "sid": 761615276,
   "address": "59 Gale Drive",
   "Longtitude": 122.2833466,
   "Latitude": 7.3517838,
   "number_of_panels": 566,
   "capacity_pr_panel_in_W": 1405,
   "theo max in W": 795230,
   "direction": 145,
   "inclination": 14,
   "effecincy": 24,
   "manufacturer": "McKenzie, Johns and Heathcote",
   "model": "Corvette"
 },
 {
   "id": 180,
   "sid": 862173361,
   "address": "0 Farragut Court",
   "Longtitude": 20.9297741,
   "Latitude": 50.1343159,
   "number_of_panels": 443,
   "capacity_pr_panel_in_W": 3814,
   "theo max in W": 1689602,
   "direction": 195,
   "inclination": 13,
   "effecincy": 21,
   "manufacturer": "Lueilwitz Group",
   "model": "Murano"
 },
 {
   "id": 181,
   "sid": 335034850,
   "address": "0944 Forster Circle",
   "Longtitude": 89.054565,
   "Latitude": 29.31718,
   "number_of_panels": 221,
   "capacity_pr_panel_in_W": 1287,
   "theo max in W": 284427,
   "direction": 184,
   "inclination": 7,
   "effecincy": 5,
   "manufacturer": "Bogisich, McCullough and Nicolas",
   "model": "Cooper"
 },
 {
   "id": 182,
   "sid": 315349382,
   "address": "2 Ryan Park",
   "Longtitude": 124.292626,
   "Latitude": 45.506995,
   "number_of_panels": 220,
   "capacity_pr_panel_in_W": 2737,
   "theo max in W": 602140,
   "direction": 110,
   "inclination": 10,
   "effecincy": 22,
   "manufacturer": "West-Orn",
   "model": "W126"
 },
 {
   "id": 183,
   "sid": 162484876,
   "address": "64 Waxwing Center",
   "Longtitude": 120.307334,
   "Latitude": 29.831643,
   "number_of_panels": 416,
   "capacity_pr_panel_in_W": 873,
   "theo max in W": 363168,
   "direction": 100,
   "inclination": 4,
   "effecincy": 17,
   "manufacturer": "Kutch Inc",
   "model": "Truck"
 },
 {
   "id": 184,
   "sid": 326074650,
   "address": "86 Mandrake Drive",
   "Longtitude": 3.1930302,
   "Latitude": 6.8192374,
   "number_of_panels": 466,
   "capacity_pr_panel_in_W": 3781,
   "theo max in W": 1761946,
   "direction": 2,
   "inclination": 20,
   "effecincy": 5,
   "manufacturer": "Weimann LLC",
   "model": "Vanquish S"
 },
 {
   "id": 185,
   "sid": 945749245,
   "address": "84 Roxbury Lane",
   "Longtitude": -105.4093552,
   "Latitude": 20.8965838,
   "number_of_panels": 885,
   "capacity_pr_panel_in_W": 287,
   "theo max in W": 253995,
   "direction": 18,
   "inclination": 1,
   "effecincy": 13,
   "manufacturer": "Wintheiser and Sons",
   "model": "tC"
 },
 {
   "id": 186,
   "sid": 972102875,
   "address": "6449 Spohn Lane",
   "Longtitude": 113.200971,
   "Latitude": 39.134282,
   "number_of_panels": 92,
   "capacity_pr_panel_in_W": 4824,
   "theo max in W": 443808,
   "direction": 88,
   "inclination": 2,
   "effecincy": 6,
   "manufacturer": "Jones, Dare and McClure",
   "model": "E150"
 },
 {
   "id": 187,
   "sid": 989770665,
   "address": "092 Coleman Point",
   "Longtitude": 121.4213333,
   "Latitude": 14.2226543,
   "number_of_panels": 28,
   "capacity_pr_panel_in_W": 4879,
   "theo max in W": 136612,
   "direction": 173,
   "inclination": 17,
   "effecincy": 17,
   "manufacturer": "Wuckert, McDermott and Boyle",
   "model": "Legend"
 },
 {
   "id": 188,
   "sid": 573658681,
   "address": "8 Springview Center",
   "Longtitude": 19.944654,
   "Latitude": 49.970045,
   "number_of_panels": 120,
   "capacity_pr_panel_in_W": 572,
   "theo max in W": 68640,
   "direction": 151,
   "inclination": 11,
   "effecincy": 19,
   "manufacturer": "Heller, Torphy and Medhurst",
   "model": "I"
 },
 {
   "id": 189,
   "sid": 425057978,
   "address": "69020 Corben Circle",
   "Longtitude": -50.7317774,
   "Latitude": -21.9221397,
   "number_of_panels": 583,
   "capacity_pr_panel_in_W": 4650,
   "theo max in W": 2710950,
   "direction": 313,
   "inclination": 12,
   "effecincy": 21,
   "manufacturer": "Morissette-D'Amore",
   "model": "Century"
 },
 {
   "id": 190,
   "sid": 676944351,
   "address": "4 Beilfuss Park",
   "Longtitude": 112.4952454,
   "Latitude": 49.2712859,
   "number_of_panels": 107,
   "capacity_pr_panel_in_W": 2175,
   "theo max in W": 232725,
   "direction": 186,
   "inclination": 17,
   "effecincy": 20,
   "manufacturer": "Schowalter-Reilly",
   "model": "Laser"
 },
 {
   "id": 191,
   "sid": 252180776,
   "address": "12850 Lakeland Road",
   "Longtitude": 106.1536828,
   "Latitude": 22.7370366,
   "number_of_panels": 732,
   "capacity_pr_panel_in_W": 2685,
   "theo max in W": 1965420,
   "direction": 113,
   "inclination": 17,
   "effecincy": 18,
   "manufacturer": "Greenfelder-Mills",
   "model": "Silverado 1500"
 },
 {
   "id": 192,
   "sid": 649926144,
   "address": "11694 Melrose Place",
   "Longtitude": 118.479654,
   "Latitude": 36.684789,
   "number_of_panels": 927,
   "capacity_pr_panel_in_W": 2614,
   "theo max in W": 2423178,
   "direction": 56,
   "inclination": 6,
   "effecincy": 11,
   "manufacturer": "Stokes Inc",
   "model": "Boxster"
 },
 {
   "id": 193,
   "sid": 859409603,
   "address": "36063 Haas Place",
   "Longtitude": 125.8610989,
   "Latitude": 7.3756564,
   "number_of_panels": 356,
   "capacity_pr_panel_in_W": 2232,
   "theo max in W": 794592,
   "direction": 43,
   "inclination": 5,
   "effecincy": 17,
   "manufacturer": "O'Connell Group",
   "model": "New Beetle"
 },
 {
   "id": 194,
   "sid": 859842745,
   "address": "05485 Sutteridge Road",
   "Longtitude": 100.695534,
   "Latitude": 34.073572,
   "number_of_panels": 230,
   "capacity_pr_panel_in_W": 1254,
   "theo max in W": 288420,
   "direction": 236,
   "inclination": 14,
   "effecincy": 21,
   "manufacturer": "Boehm-Champlin",
   "model": "Hombre Space"
 },
 {
   "id": 195,
   "sid": 947762201,
   "address": "20 Bay Pass",
   "Longtitude": 39.3988465,
   "Latitude": 51.1373971,
   "number_of_panels": 461,
   "capacity_pr_panel_in_W": 1955,
   "theo max in W": 901255,
   "direction": 215,
   "inclination": 15,
   "effecincy": 6,
   "manufacturer": "Schaefer-Hand",
   "model": "Accent"
 },
 {
   "id": 196,
   "sid": 665437020,
   "address": "6 Charing Cross Terrace",
   "Longtitude": 52.4223979,
   "Latitude": 54.8603009,
   "number_of_panels": 214,
   "capacity_pr_panel_in_W": 2128,
   "theo max in W": 455392,
   "direction": 112,
   "inclination": 3,
   "effecincy": 23,
   "manufacturer": "Collier LLC",
   "model": "SL-Class"
 },
 {
   "id": 197,
   "sid": 189501936,
   "address": "52729 Gerald Terrace",
   "Longtitude": 21.8727139,
   "Latitude": 49.935213,
   "number_of_panels": 410,
   "capacity_pr_panel_in_W": 4150,
   "theo max in W": 1701500,
   "direction": 214,
   "inclination": 16,
   "effecincy": 21,
   "manufacturer": "Mayer Group",
   "model": "Cabriolet"
 },
 {
   "id": 198,
   "sid": 90232576,
   "address": "642 Glacier Hill Pass",
   "Longtitude": 109.47991,
   "Latitude": 28.947037,
   "number_of_panels": 150,
   "capacity_pr_panel_in_W": 2302,
   "theo max in W": 345300,
   "direction": 184,
   "inclination": 14,
   "effecincy": 21,
   "manufacturer": "Kutch, Collins and Koepp",
   "model": "Voyager"
 },
 {
   "id": 199,
   "sid": 492912891,
   "address": "382 Lindbergh Way",
   "Longtitude": 38.0011402,
   "Latitude": 55.9240189,
   "number_of_panels": 110,
   "capacity_pr_panel_in_W": 1062,
   "theo max in W": 116820,
   "direction": 158,
   "inclination": 7,
   "effecincy": 20,
   "manufacturer": "Wolf and Sons",
   "model": "9-3"
 },
 {
   "id": 200,
   "sid": 749010874,
   "address": "4 Harper Junction",
   "Longtitude": 23.7275817,
   "Latitude": 42.3894673,
   "number_of_panels": 831,
   "capacity_pr_panel_in_W": 4150,
   "theo max in W": 3448650,
   "direction": 74,
   "inclination": 4,
   "effecincy": 15,
   "manufacturer": "O'Hara LLC",
   "model": "Astro"
 }
]