[
  {
"id": 64,
  "sid": 100001,
  "magistrat": "",
  "address": "Gigantium",
  "number_of_panels": 40,
  "capacity_pr_panel_in_W": 250,
  "max production in one hour": 10000,
  "Longtitude": 9.963093,
  "Latitude": 57.0180491,
  "direction": 10,
  "inclination": 7,
  "effecincy": 15,
  "isOffline": false
},
    {
"id": 65,
  "sid": 100002,
  "magistrat": "",
  "address": "Holmevej ved Hemmet",
  "number_of_panels": 161731,
  "capacity_pr_panel_in_W": 99,
  "max production in one hour": 16000000,
  "Longtitude": 8.319818,
  "Latitude": 55.851483,
  "direction": 270,
  "inclination": 170,
  "effecincy": 15,
  "isOffline": false
},

  {
    "id": 21,
    "sid": 16010,
    "magistrat": "MBU ",
    "address": "Mårslet Skole",
    "number_of_panels": 703,
    "capacity_pr_panel_in_W": 169,
    "max production in one hour": 118631,
    "Longtitude": 10.156939,
    "Latitude": 56.068882,
    "direction": 190,
    "inclination": 15,
    "effecincy": 15,
    "isOffline": false
  },
  {
    "id": 31,
    "sid": 16011,
    "magistrat": "MBU ",
    "address": "Skødstrup Skole",
    "number_of_panels": 547,
    "capacity_pr_panel_in_W": 122,
    "max production in one hour": 66598,
    "Longtitude": 10.3085428,
    "Latitude": 56.27132,
    "direction": 220,
    "inclination": 15,
    "effecincy": 15,
    "isOffline": false
  },
  {
    "id": 35,
    "sid": 16016,
    "magistrat": "MBU ",
    "address": "Søndervangskolen",
    "number_of_panels": 484,
    "capacity_pr_panel_in_W": 141,
    "max production in one hour": 68009,
    "Longtitude": 10.1498375,
    "Latitude": 56.1116448,
    "direction": 120,
    "inclination": 15,
    "effecincy": 15,
    "isOffline": false
  },
  {
    "id": 32,
    "sid": 16014,
    "magistrat": "MBU ",
    "address": "Solbjergskolen",
    "number_of_panels": 454,
    "capacity_pr_panel_in_W": 159,
    "max production in one hour": 72190,
    "Longtitude": 10.0849624,
    "Latitude": 56.0422738,
    "direction": 150,
    "inclination": 15,
    "effecincy": 15,
    "isOffline": false
  },
  {
    "id": 36,
    "sid": 16012,
    "magistrat": "MBU ",
    "address": "Tilst Skole",
    "number_of_panels": 298,
    "capacity_pr_panel_in_W": 303,
    "max production in one hour": 90146,
    "Longtitude": 10.1132164,
    "Latitude": 56.1894943,
    "direction": 70,
    "inclination": 15,
    "effecincy": 15,
    "isOffline": false
  },
  {
    "id": 28,
    "sid": 16021,
    "magistrat": "MBU ",
    "address": "Skjoldhøjskolen",
    "number_of_panels": 282,
    "capacity_pr_panel_in_W": 180,
    "max production in one hour": 50840,
    "Longtitude": 10.113712,
    "Latitude": 56.174121,
    "direction": 130,
    "inclination": 15,
    "effecincy": 15,
    "isOffline": false
  },
  {
    "id": 40,
    "sid": 15523,
    "magistrat": "MKB ",
    "address": "Dokk1",
    "number_of_panels": 274,
    "capacity_pr_panel_in_W": 765,
    "max production in one hour": 209709,
    "Longtitude": 10.2143501,
    "Latitude": 56.1535693,
    "direction": 160,
    "inclination": 15,
    "effecincy": 15,
    "isOffline": false
  },
  {
    "id": 16,
    "sid": 16018,
    "magistrat": "MBU ",
    "address": "Kragelundskolen",
    "number_of_panels": 245,
    "capacity_pr_panel_in_W": 180,
    "max production in one hour": 44168,
    "Longtitude": 10.2003279,
    "Latitude": 56.114997,
    "direction": 200,
    "inclination": 15,
    "effecincy": 15,
    "isOffline": false
  },
  {
    "id": 9,
    "sid": 16008,
    "magistrat": "MBU ",
    "address": "Holme Skole",
    "number_of_panels": 240,
    "capacity_pr_panel_in_W": 189,
    "max production in one hour": 45252,
    "Longtitude": 10.1782474,
    "Latitude": 56.1161969,
    "direction": 170,
    "inclination": 15,
    "effecincy": 15,
    "isOffline": false
  },
  {
    "id": 62,
    "sid": 54284,
    "magistrat": "MTM ",
    "address": "Kalkværksvej 10",
    "number_of_panels": 196,
    "capacity_pr_panel_in_W": 0,
    "max production in one hour": 0,
    "Longtitude": 10.2116996,
    "Latitude": 56.1504819,
    "direction": 200,
    "inclination": 15,
    "effecincy": 15,
    "isOffline": true
  },
  {
    "id": 7,
    "sid": 16017,
    "magistrat": "MBU ",
    "address": "Gammelgårdskolen",
    "number_of_panels": 151,
    "capacity_pr_panel_in_W": 194,
    "max production in one hour": 29267,
    "Longtitude": 10.156984,
    "Latitude": 56.159365,
    "direction": 160,
    "inclination": 15,
    "effecincy": 15,
    "isOffline": false
  },
  {
    "id": 48,
    "sid": 54282,
    "magistrat": "MSO ",
    "address": "Ceres Allé 13",
    "number_of_panels": 146,
    "capacity_pr_panel_in_W": 13,
    "max production in one hour": 1858,
    "Longtitude": 10.1899751,
    "Latitude": 56.1541348,
    "direction": 190,
    "inclination": 15,
    "effecincy": 15,
    "isOffline": false
  },
  {
    "id": 37,
    "sid": 16013,
    "magistrat": "MBU ",
    "address": "Vestergårdskolen",
    "number_of_panels": 139,
    "capacity_pr_panel_in_W": 218,
    "max production in one hour": 30371,
    "Longtitude": 10.1566862,
    "Latitude": 56.1294594,
    "direction": 210,
    "inclination": 15,
    "effecincy": 15,
    "isOffline": false
  },
  {
    "id": 26,
    "sid": 16020,
    "magistrat": "MBU ",
    "address": "Rundhøjskolen",
    "number_of_panels": 120,
    "capacity_pr_panel_in_W": 169,
    "max production in one hour": 20259,
    "Longtitude": 10.1779022,
    "Latitude": 56.1184176,
    "direction": 190,
    "inclination": 15,
    "effecincy": 15,
    "isOffline": false
  },
  {
    "id": 20,
    "sid": 16009,
    "magistrat": "MBU ",
    "address": "Malling Skole",
    "number_of_panels": 111,
    "capacity_pr_panel_in_W": 269,
    "max production in one hour": 29890,
    "Longtitude": 10.1920561,
    "Latitude": 56.0374322,
    "direction": 270,
    "inclination": 15,
    "effecincy": 15,
    "isOffline": false
  },
  {
    "id": 53,
    "sid": 2506,
    "magistrat": "MSO ",
    "address": "LC Mosealleen 1-3",
    "number_of_panels": 102,
    "capacity_pr_panel_in_W": 328,
    "max production in one hour": 33442,
    "Longtitude": 10.1106529,
    "Latitude": 56.1915133,
    "direction": 160,
    "inclination": 15,
    "effecincy": 15,
    "isOffline": false
  },
  {
    "id": 14,
    "sid": 54386,
    "magistrat": "MBU ",
    "address": "Kantorvænget 33",
    "number_of_panels": 75,
    "capacity_pr_panel_in_W": 43,
    "max production in one hour": 0,
    "Longtitude": 10.206416,
    "Latitude": 56.2006071,
    "direction": 210,
    "inclination": 15,
    "effecincy": 15,
    "isOffline": true
  },
  {
    "id": 19,
    "sid": 16019,
    "magistrat": "MBU ",
    "address": "Lisbjergskolen",
    "number_of_panels": 72,
    "capacity_pr_panel_in_W": 533,
    "max production in one hour": 38383,
    "Longtitude": 10.1577891,
    "Latitude": 56.2191107,
    "direction": 270,
    "inclination": 15,
    "effecincy": 15,
    "isOffline": false
  },
  {
    "id": 39,
    "sid": 298,
    "magistrat": "MBU ",
    "address": "Vidtskuevej 25",
    "number_of_panels": 45,
    "capacity_pr_panel_in_W": 136,
    "max production in one hour": 6116,
    "Longtitude": 10.1772345,
    "Latitude": 56.1280063,
    "direction": 170,
    "inclination": 15,
    "effecincy": 15,
    "isOffline": false
  },
  {
    "id": 2,
    "sid": 54399,
    "magistrat": "MBU ",
    "address": "Ajstrupvej 49",
    "number_of_panels": 22,
    "capacity_pr_panel_in_W": 84,
    "max production in one hour": 3351,
    "Longtitude": 10.1482844,
    "Latitude": 56.177605,
    "direction": 350,
    "inclination": 15,
    "effecincy": 15,
    "isOffline": false
  },
  {
    "id": 30,
    "sid": 16015,
    "magistrat": "MBU ",
    "address": "Skæring Skole",
    "number_of_panels": 4,
    "capacity_pr_panel_in_W": 23.995,
    "max production in one hour": 95979,
    "Longtitude": 10.2990808,
    "Latitude": 56.2266707,
    "direction": 120,
    "inclination": 15,
    "effecincy": 15,
    "isOffline": false
  }
]
