[
 {
   "id": 112,
   "sid": 499411772,
   "address": "32026 Stephen Trail",
   "Longtitude": -82.1616,
   "Latitude": 43.03596,
   "number_of_panels": 457,
   "capacity_pr_panel_in_W": 3108,
   "theo max in W": 1420356,
   "direction": 214,
   "inclination": 13,
   "effecincy": 17,
   "manufacturer": "Stehr, Howe and Jones",
   "model": "Magnum"
 },
 {
   "id": 113,
   "sid": 874279322,
   "address": "1 Redwing Road",
   "Longtitude": 55.6720592,
   "Latitude": 58.00284,
   "number_of_panels": 26,
   "capacity_pr_panel_in_W": 1831,
   "theo max in W": 47606,
   "direction": 34,
   "inclination": 0,
   "effecincy": 5,
   "manufacturer": "Parker and Sons",
   "model": "Z3"
 },
 {
   "id": 114,
   "sid": 929367390,
   "address": "29575 Ruskin Road",
   "Longtitude": -9.252733,
   "Latitude": 38.9374004,
   "number_of_panels": 536,
   "capacity_pr_panel_in_W": 1699,
   "theo max in W": 910664,
   "direction": 336,
   "inclination": 6,
   "effecincy": 15,
   "manufacturer": "Hills-Keeling",
   "model": "Land Cruiser"
 },
 {
   "id": 115,
   "sid": 727633476,
   "address": "40 Scott Parkway",
   "Longtitude": 141.5437532,
   "Latitude": 38.7333101,
   "number_of_panels": 889,
   "capacity_pr_panel_in_W": 1723,
   "theo max in W": 1531747,
   "direction": 341,
   "inclination": 10,
   "effecincy": 9,
   "manufacturer": "VonRueden-Wilkinson",
   "model": "S10 Blazer"
 },
 {
   "id": 116,
   "sid": 818847681,
   "address": "80 Orin Parkway",
   "Longtitude": 112.833836,
   "Latitude": 28.353912,
   "number_of_panels": 548,
   "capacity_pr_panel_in_W": 1315,
   "theo max in W": 720620,
   "direction": 183,
   "inclination": 2,
   "effecincy": 24,
   "manufacturer": "Schuster, Sauer and Reichel",
   "model": "Model T"
 },
 {
   "id": 117,
   "sid": 320968976,
   "address": "3 Vermont Crossing",
   "Longtitude": 0.3697581,
   "Latitude": 46.6698573,
   "number_of_panels": 988,
   "capacity_pr_panel_in_W": 737,
   "theo max in W": 728156,
   "direction": 36,
   "inclination": 0,
   "effecincy": 8,
   "manufacturer": "Lesch-Sanford",
   "model": "Explorer"
 },
 {
   "id": 118,
   "sid": 212640657,
   "address": "31 Pennsylvania Court",
   "Longtitude": 110.6535448,
   "Latitude": 47.3178096,
   "number_of_panels": 87,
   "capacity_pr_panel_in_W": 4465,
   "theo max in W": 388455,
   "direction": 69,
   "inclination": 7,
   "effecincy": 5,
   "manufacturer": "Morar Group",
   "model": "Cutlass Supreme"
 },
 {
   "id": 119,
   "sid": 408966156,
   "address": "5337 Kings Drive",
   "Longtitude": -61.2306446,
   "Latitude": 13.0100514,
   "number_of_panels": 681,
   "capacity_pr_panel_in_W": 3835,
   "theo max in W": 2611635,
   "direction": 338,
   "inclination": 15,
   "effecincy": 12,
   "manufacturer": "Kub Inc",
   "model": "Caprice Classic"
 },
 {
   "id": 120,
   "sid": 498707607,
   "address": "420 Talmadge Pass",
   "Longtitude": 17.953415,
   "Latitude": 62.6291355,
   "number_of_panels": 708,
   "capacity_pr_panel_in_W": 1246,
   "theo max in W": 882168,
   "direction": 99,
   "inclination": 1,
   "effecincy": 8,
   "manufacturer": "Heaney Inc",
   "model": "CL-Class"
 },
 {
   "id": 121,
   "sid": 472817218,
   "address": "37090 Knutson Avenue",
   "Longtitude": 111.3203,
   "Latitude": -6.9707,
   "number_of_panels": 708,
   "capacity_pr_panel_in_W": 532,
   "theo max in W": 376656,
   "direction": 220,
   "inclination": 15,
   "effecincy": 13,
   "manufacturer": "Hagenes, Powlowski and Harris",
   "model": "RL"
 },
 {
   "id": 122,
   "sid": 414558125,
   "address": "6 Clyde Gallagher Road",
   "Longtitude": 70.9139437,
   "Latitude": 29.3830191,
   "number_of_panels": 511,
   "capacity_pr_panel_in_W": 4263,
   "theo max in W": 2178393,
   "direction": 221,
   "inclination": 3,
   "effecincy": 9,
   "manufacturer": "Boyer Inc",
   "model": "SJ"
 },
 {
   "id": 123,
   "sid": 264269855,
   "address": "63 Sundown Point",
   "Longtitude": 33.8116067,
   "Latitude": 27.2578957,
   "number_of_panels": 842,
   "capacity_pr_panel_in_W": 2406,
   "theo max in W": 2025852,
   "direction": 321,
   "inclination": 11,
   "effecincy": 23,
   "manufacturer": "Conroy and Sons",
   "model": "E150"
 },
 {
   "id": 124,
   "sid": 932174503,
   "address": "11 Di Loreto Lane",
   "Longtitude": 116.681972,
   "Latitude": 23.354091,
   "number_of_panels": 934,
   "capacity_pr_panel_in_W": 517,
   "theo max in W": 482878,
   "direction": 7,
   "inclination": 10,
   "effecincy": 14,
   "manufacturer": "Cremin Group",
   "model": "S70"
 },
 {
   "id": 125,
   "sid": 864313369,
   "address": "4 Gale Park",
   "Longtitude": 61.3396043,
   "Latitude": 55.1795454,
   "number_of_panels": 344,
   "capacity_pr_panel_in_W": 1710,
   "theo max in W": 588240,
   "direction": 173,
   "inclination": 6,
   "effecincy": 25,
   "manufacturer": "Bednar Group",
   "model": "Mazda5"
 },
 {
   "id": 126,
   "sid": 770813757,
   "address": "3 Brentwood Court",
   "Longtitude": -77.3469946,
   "Latitude": 37.9429182,
   "number_of_panels": 60,
   "capacity_pr_panel_in_W": 483,
   "theo max in W": 28980,
   "direction": 330,
   "inclination": 10,
   "effecincy": 7,
   "manufacturer": "Kunde Group",
   "model": "D150"
 },
 {
   "id": 127,
   "sid": 148763195,
   "address": "1 Meadow Valley Terrace",
   "Longtitude": 114.109497,
   "Latitude": 22.396428,
   "number_of_panels": 661,
   "capacity_pr_panel_in_W": 1897,
   "theo max in W": 1253917,
   "direction": 115,
   "inclination": 5,
   "effecincy": 17,
   "manufacturer": "Thiel-Cummings",
   "model": "F150"
 },
 {
   "id": 128,
   "sid": 570352356,
   "address": "77 Little Fleur Plaza",
   "Longtitude": -8.2327446,
   "Latitude": 40.9183403,
   "number_of_panels": 764,
   "capacity_pr_panel_in_W": 4490,
   "theo max in W": 3430360,
   "direction": 209,
   "inclination": 1,
   "effecincy": 11,
   "manufacturer": "Maggio-Fritsch",
   "model": "Pathfinder"
 },
 {
   "id": 129,
   "sid": 384125420,
   "address": "2385 Hovde Way",
   "Longtitude": -76.7284559,
   "Latitude": 8.0951588,
   "number_of_panels": 437,
   "capacity_pr_panel_in_W": 1985,
   "theo max in W": 867445,
   "direction": 175,
   "inclination": 18,
   "effecincy": 23,
   "manufacturer": "Herman, Jast and Bergnaum",
   "model": "XK Series"
 },
 {
   "id": 130,
   "sid": 830387753,
   "address": "13 Oak Street",
   "Longtitude": 94.80205,
   "Latitude": 45.8309803,
   "number_of_panels": 785,
   "capacity_pr_panel_in_W": 1369,
   "theo max in W": 1074665,
   "direction": 162,
   "inclination": 13,
   "effecincy": 12,
   "manufacturer": "Corkery, Schamberger and Hagenes",
   "model": "Eclipse"
 },
 {
   "id": 131,
   "sid": 393469806,
   "address": "132 Warbler Plaza",
   "Longtitude": -51.7601166,
   "Latitude": -24.7592533,
   "number_of_panels": 779,
   "capacity_pr_panel_in_W": 1048,
   "theo max in W": 816392,
   "direction": 323,
   "inclination": 19,
   "effecincy": 24,
   "manufacturer": "Thompson-Renner",
   "model": "5 Series"
 },
 {
   "id": 132,
   "sid": 789820273,
   "address": "49054 Hagan Road",
   "Longtitude": 55.8727412,
   "Latitude": 58.0819675,
   "number_of_panels": 661,
   "capacity_pr_panel_in_W": 2726,
   "theo max in W": 1801886,
   "direction": 240,
   "inclination": 8,
   "effecincy": 22,
   "manufacturer": "Parisian Inc",
   "model": "Traverse"
 },
 {
   "id": 133,
   "sid": 809468273,
   "address": "27 Fieldstone Way",
   "Longtitude": 19.2774975,
   "Latitude": 49.666675,
   "number_of_panels": 493,
   "capacity_pr_panel_in_W": 2452,
   "theo max in W": 1208836,
   "direction": 81,
   "inclination": 4,
   "effecincy": 10,
   "manufacturer": "Roberts-Wiegand",
   "model": "911"
 },
 {
   "id": 134,
   "sid": 918161162,
   "address": "247 Upham Place",
   "Longtitude": 39.0848844,
   "Latitude": 44.0752881,
   "number_of_panels": 669,
   "capacity_pr_panel_in_W": 3444,
   "theo max in W": 2304036,
   "direction": 197,
   "inclination": 11,
   "effecincy": 18,
   "manufacturer": "Yundt-Tillman",
   "model": "Mariner"
 },
 {
   "id": 135,
   "sid": 576111425,
   "address": "85213 Brickson Park Trail",
   "Longtitude": -16.23333,
   "Latitude": 14.63333,
   "number_of_panels": 667,
   "capacity_pr_panel_in_W": 1279,
   "theo max in W": 853093,
   "direction": 233,
   "inclination": 12,
   "effecincy": 12,
   "manufacturer": "Harber, King and Hayes",
   "model": "Sprinter 3500"
 },
 {
   "id": 136,
   "sid": 383837222,
   "address": "4 East Trail",
   "Longtitude": 22.6377432,
   "Latitude": 32.755613,
   "number_of_panels": 94,
   "capacity_pr_panel_in_W": 4584,
   "theo max in W": 430896,
   "direction": 178,
   "inclination": 12,
   "effecincy": 14,
   "manufacturer": "Paucek, Grimes and Lehner",
   "model": "TundraMax"
 },
 {
   "id": 137,
   "sid": 737494123,
   "address": "51 Raven Terrace",
   "Longtitude": 3.7139045,
   "Latitude": 51.0003903,
   "number_of_panels": 223,
   "capacity_pr_panel_in_W": 4946,
   "theo max in W": 1102958,
   "direction": 239,
   "inclination": 5,
   "effecincy": 23,
   "manufacturer": "Dibbert-Mraz",
   "model": "Focus"
 },
 {
   "id": 138,
   "sid": 402721142,
   "address": "09 Schlimgen Alley",
   "Longtitude": 110.166477,
   "Latitude": 29.474413,
   "number_of_panels": 156,
   "capacity_pr_panel_in_W": 483,
   "theo max in W": 75348,
   "direction": 197,
   "inclination": 9,
   "effecincy": 11,
   "manufacturer": "Hagenes LLC",
   "model": "SL-Class"
 },
 {
   "id": 139,
   "sid": 614780183,
   "address": "070 Northwestern Pass",
   "Longtitude": -91.0891378,
   "Latitude": 14.5444432,
   "number_of_panels": 847,
   "capacity_pr_panel_in_W": 4072,
   "theo max in W": 3448984,
   "direction": 298,
   "inclination": 1,
   "effecincy": 15,
   "manufacturer": "Oberbrunner, Wehner and Lockman",
   "model": "MX-6"
 },
 {
   "id": 140,
   "sid": 202656246,
   "address": "52985 Old Gate Drive",
   "Longtitude": 100.051784,
   "Latitude": 17.9835237,
   "number_of_panels": 741,
   "capacity_pr_panel_in_W": 1314,
   "theo max in W": 973674,
   "direction": 88,
   "inclination": 13,
   "effecincy": 22,
   "manufacturer": "Larkin, Stark and Barton",
   "model": "Vandura G2500"
 },
 {
   "id": 141,
   "sid": 194566705,
   "address": "8 Raven Drive",
   "Longtitude": 100.5858786,
   "Latitude": -0.8808728,
   "number_of_panels": 174,
   "capacity_pr_panel_in_W": 1870,
   "theo max in W": 325380,
   "direction": 270,
   "inclination": 19,
   "effecincy": 12,
   "manufacturer": "Ziemann, Mosciski and Waters",
   "model": "Taurus"
 },
 {
   "id": 142,
   "sid": 333896847,
   "address": "17 Washington Center",
   "Longtitude": 122.9768634,
   "Latitude": -8.3351552,
   "number_of_panels": 234,
   "capacity_pr_panel_in_W": 2580,
   "theo max in W": 603720,
   "direction": 15,
   "inclination": 2,
   "effecincy": 13,
   "manufacturer": "Quigley, Becker and Rempel",
   "model": "Astra"
 },
 {
   "id": 143,
   "sid": 706354972,
   "address": "251 Hayes Plaza",
   "Longtitude": 126.1255129,
   "Latitude": 7.6115877,
   "number_of_panels": 627,
   "capacity_pr_panel_in_W": 4212,
   "theo max in W": 2640924,
   "direction": 167,
   "inclination": 20,
   "effecincy": 15,
   "manufacturer": "Conn LLC",
   "model": "Montero"
 },
 {
   "id": 144,
   "sid": 194185898,
   "address": "6833 Monterey Place",
   "Longtitude": 116.4559849,
   "Latitude": 39.9317949,
   "number_of_panels": 872,
   "capacity_pr_panel_in_W": 1545,
   "theo max in W": 1347240,
   "direction": 40,
   "inclination": 6,
   "effecincy": 16,
   "manufacturer": "Mann, Ledner and Olson",
   "model": "SLK-Class"
 },
 {
   "id": 145,
   "sid": 691017932,
   "address": "05 Londonderry Center",
   "Longtitude": 7.2248378,
   "Latitude": 13.0930867,
   "number_of_panels": 775,
   "capacity_pr_panel_in_W": 356,
   "theo max in W": 275900,
   "direction": 219,
   "inclination": 5,
   "effecincy": 25,
   "manufacturer": "Cummerata Group",
   "model": "E150"
 },
 {
   "id": 146,
   "sid": 778913778,
   "address": "57777 Ohio Way",
   "Longtitude": -35.6095474,
   "Latitude": -9.3002357,
   "number_of_panels": 17,
   "capacity_pr_panel_in_W": 2056,
   "theo max in W": 34952,
   "direction": 149,
   "inclination": 20,
   "effecincy": 17,
   "manufacturer": "Denesik LLC",
   "model": "Sorento"
 },
 {
   "id": 147,
   "sid": 333008089,
   "address": "34 Magdeline Road",
   "Longtitude": 130.5200852,
   "Latitude": 33.7311229,
   "number_of_panels": 909,
   "capacity_pr_panel_in_W": 2203,
   "theo max in W": 2002527,
   "direction": 71,
   "inclination": 1,
   "effecincy": 16,
   "manufacturer": "Turcotte-Volkman",
   "model": "Express 3500"
 },
 {
   "id": 148,
   "sid": 637230147,
   "address": "16 Forest Dale Street",
   "Longtitude": -89.76667,
   "Latitude": 14.51667,
   "number_of_panels": 878,
   "capacity_pr_panel_in_W": 2949,
   "theo max in W": 2589222,
   "direction": 146,
   "inclination": 7,
   "effecincy": 23,
   "manufacturer": "Yundt and Sons",
   "model": "Voyager"
 },
 {
   "id": 149,
   "sid": 974869539,
   "address": "5 Tomscot Plaza",
   "Longtitude": 35.04532,
   "Latitude": 31.88743,
   "number_of_panels": 208,
   "capacity_pr_panel_in_W": 4928,
   "theo max in W": 1025024,
   "direction": 358,
   "inclination": 5,
   "effecincy": 9,
   "manufacturer": "Durgan and Sons",
   "model": "Ranger"
 },
 {
   "id": 150,
   "sid": 564025428,
   "address": "830 Manufacturers Park",
   "Longtitude": 11.0137723,
   "Latitude": 50.9977219,
   "number_of_panels": 255,
   "capacity_pr_panel_in_W": 4415,
   "theo max in W": 1125825,
   "direction": 297,
   "inclination": 6,
   "effecincy": 14,
   "manufacturer": "O'Keefe Group",
   "model": "911"
 },
 {
   "id": 151,
   "sid": 558393008,
   "address": "4 Roth Hill",
   "Longtitude": -60.6923382,
   "Latitude": -32.9285798,
   "number_of_panels": 18,
   "capacity_pr_panel_in_W": 4493,
   "theo max in W": 80874,
   "direction": 67,
   "inclination": 10,
   "effecincy": 5,
   "manufacturer": "Oberbrunner-Nikolaus",
   "model": "X3"
 },
 {
   "id": 152,
   "sid": 83574800,
   "address": "8 Doe Crossing Road",
   "Longtitude": -79.124367,
   "Latitude": -6.924112,
   "number_of_panels": 296,
   "capacity_pr_panel_in_W": 1154,
   "theo max in W": 341584,
   "direction": 136,
   "inclination": 6,
   "effecincy": 13,
   "manufacturer": "Koelpin, Crooks and Hills",
   "model": "Integra"
 },
 {
   "id": 153,
   "sid": 745664125,
   "address": "18676 2nd Way",
   "Longtitude": 22.6098737,
   "Latitude": 44.6035552,
   "number_of_panels": 209,
   "capacity_pr_panel_in_W": 927,
   "theo max in W": 193743,
   "direction": 45,
   "inclination": 18,
   "effecincy": 12,
   "manufacturer": "Russel-Towne",
   "model": "Regal"
 },
 {
   "id": 154,
   "sid": 224764209,
   "address": "0078 Prairieview Circle",
   "Longtitude": 116.165777,
   "Latitude": 23.297493,
   "number_of_panels": 271,
   "capacity_pr_panel_in_W": 1973,
   "theo max in W": 534683,
   "direction": 153,
   "inclination": 10,
   "effecincy": 6,
   "manufacturer": "Kuvalis, Sipes and Crist",
   "model": "Express 3500"
 },
 {
   "id": 155,
   "sid": 693435217,
   "address": "0675 Blackbird Junction",
   "Longtitude": 0.839002,
   "Latitude": 48.3156651,
   "number_of_panels": 482,
   "capacity_pr_panel_in_W": 2912,
   "theo max in W": 1403584,
   "direction": 186,
   "inclination": 6,
   "effecincy": 5,
   "manufacturer": "Windler, Turcotte and Corwin",
   "model": "CL-Class"
 },
 {
   "id": 156,
   "sid": 125049242,
   "address": "64 Fairview Circle",
   "Longtitude": 111.353125,
   "Latitude": 27.539403,
   "number_of_panels": 276,
   "capacity_pr_panel_in_W": 719,
   "theo max in W": 198444,
   "direction": 215,
   "inclination": 0,
   "effecincy": 6,
   "manufacturer": "Mertz Inc",
   "model": "MDX"
 },
 {
   "id": 157,
   "sid": 847355646,
   "address": "4713 Lyons Terrace",
   "Longtitude": 112.132488,
   "Latitude": 34.728584,
   "number_of_panels": 190,
   "capacity_pr_panel_in_W": 3840,
   "theo max in W": 729600,
   "direction": 357,
   "inclination": 19,
   "effecincy": 13,
   "manufacturer": "Wisoky and Sons",
   "model": "Seville"
 },
 {
   "id": 158,
   "sid": 250756821,
   "address": "42424 Autumn Leaf Pass",
   "Longtitude": 123.5560069,
   "Latitude": -8.3848454,
   "number_of_panels": 738,
   "capacity_pr_panel_in_W": 4262,
   "theo max in W": 3145356,
   "direction": 293,
   "inclination": 12,
   "effecincy": 9,
   "manufacturer": "Jenkins, Steuber and Gibson",
   "model": "Seville"
 },
 {
   "id": 159,
   "sid": 425962955,
   "address": "34 Golden Leaf Point",
   "Longtitude": -7.9886104,
   "Latitude": 40.2690451,
   "number_of_panels": 65,
   "capacity_pr_panel_in_W": 734,
   "theo max in W": 47710,
   "direction": 171,
   "inclination": 18,
   "effecincy": 17,
   "manufacturer": "Hansen-Greenholt",
   "model": "Highlander"
 },
 {
   "id": 160,
   "sid": 146657379,
   "address": "06 Sunnyside Parkway",
   "Longtitude": 108.4928912,
   "Latitude": -7.0837242,
   "number_of_panels": 861,
   "capacity_pr_panel_in_W": 2690,
   "theo max in W": 2316090,
   "direction": 298,
   "inclination": 1,
   "effecincy": 23,
   "manufacturer": "Casper, Pacocha and Kilback",
   "model": "Amigo"
 },
 {
   "id": 161,
   "sid": 197742533,
   "address": "67 Cottonwood Avenue",
   "Longtitude": 109.8633501,
   "Latitude": -7.0179759,
   "number_of_panels": 19,
   "capacity_pr_panel_in_W": 2326,
   "theo max in W": 44194,
   "direction": 80,
   "inclination": 7,
   "effecincy": 16,
   "manufacturer": "Feeney-Shanahan",
   "model": "V8"
 },
 {
   "id": 162,
   "sid": 819775385,
   "address": "14506 Novick Trail",
   "Longtitude": 42.27111,
   "Latitude": 54.76778,
   "number_of_panels": 609,
   "capacity_pr_panel_in_W": 2946,
   "theo max in W": 1794114,
   "direction": 133,
   "inclination": 17,
   "effecincy": 12,
   "manufacturer": "Hoeger, Hayes and Fay",
   "model": "Caravan"
 },
 {
   "id": 163,
   "sid": 76289479,
   "address": "077 Manufacturers Court",
   "Longtitude": 115.809852,
   "Latitude": 31.345009,
   "number_of_panels": 736,
   "capacity_pr_panel_in_W": 3762,
   "theo max in W": 2768832,
   "direction": 53,
   "inclination": 8,
   "effecincy": 22,
   "manufacturer": "Cartwright, Abbott and Schmidt",
   "model": "Contour"
 },
 {
   "id": 164,
   "sid": 342267776,
   "address": "2 Utah Drive",
   "Longtitude": 101.14473,
   "Latitude": 24.187566,
   "number_of_panels": 668,
   "capacity_pr_panel_in_W": 4429,
   "theo max in W": 2958572,
   "direction": 323,
   "inclination": 19,
   "effecincy": 20,
   "manufacturer": "O'Hara, Mraz and Cormier",
   "model": "Z4"
 },
 {
   "id": 165,
   "sid": 229400279,
   "address": "73 Crest Line Plaza",
   "Longtitude": 15.7056221,
   "Latitude": 51.8186111,
   "number_of_panels": 317,
   "capacity_pr_panel_in_W": 1711,
   "theo max in W": 542387,
   "direction": 242,
   "inclination": 17,
   "effecincy": 22,
   "manufacturer": "Schamberger-Gusikowski",
   "model": "Accent"
 },
 {
   "id": 166,
   "sid": 826379247,
   "address": "929 Shoshone Plaza",
   "Longtitude": 44.0546008,
   "Latitude": 42.8509219,
   "number_of_panels": 221,
   "capacity_pr_panel_in_W": 3788,
   "theo max in W": 837148,
   "direction": 254,
   "inclination": 14,
   "effecincy": 8,
   "manufacturer": "Kuvalis-Gibson",
   "model": "Impreza"
 },
 {
   "id": 167,
   "sid": 100427634,
   "address": "5590 Heffernan Road",
   "Longtitude": 18.9959549,
   "Latitude": 44.6939722,
   "number_of_panels": 909,
   "capacity_pr_panel_in_W": 1840,
   "theo max in W": 1672560,
   "direction": 300,
   "inclination": 2,
   "effecincy": 6,
   "manufacturer": "Lehner, Littel and Ratke",
   "model": "626"
 },
 {
   "id": 168,
   "sid": 186696324,
   "address": "5413 Eliot Crossing",
   "Longtitude": 102.026135,
   "Latitude": 14.6710601,
   "number_of_panels": 86,
   "capacity_pr_panel_in_W": 3371,
   "theo max in W": 289906,
   "direction": 234,
   "inclination": 18,
   "effecincy": 17,
   "manufacturer": "Gerhold LLC",
   "model": "RAV4"
 },
 {
   "id": 169,
   "sid": 633300138,
   "address": "91912 Fallview Terrace",
   "Longtitude": 57.6558829,
   "Latitude": 58.9607635,
   "number_of_panels": 819,
   "capacity_pr_panel_in_W": 3059,
   "theo max in W": 2505321,
   "direction": 127,
   "inclination": 10,
   "effecincy": 20,
   "manufacturer": "Rolfson and Sons",
   "model": "Chariot"
 },
 {
   "id": 170,
   "sid": 23398808,
   "address": "09 Kingsford Crossing",
   "Longtitude": 124.454363,
   "Latitude": 6.83249,
   "number_of_panels": 214,
   "capacity_pr_panel_in_W": 1634,
   "theo max in W": 349676,
   "direction": 148,
   "inclination": 11,
   "effecincy": 11,
   "manufacturer": "Pagac-O'Hara",
   "model": "RS 6"
 },
 {
   "id": 171,
   "sid": 400384169,
   "address": "9089 Commercial Drive",
   "Longtitude": 114.3311718,
   "Latitude": 4.6101062,
   "number_of_panels": 486,
   "capacity_pr_panel_in_W": 2015,
   "theo max in W": 979290,
   "direction": 167,
   "inclination": 3,
   "effecincy": 5,
   "manufacturer": "Daugherty, Grady and Reinger",
   "model": "Discovery Series II"
 },
 {
   "id": 172,
   "sid": 105128291,
   "address": "5 Union Park",
   "Longtitude": -38.0850339,
   "Latitude": -5.1443118,
   "number_of_panels": 318,
   "capacity_pr_panel_in_W": 3705,
   "theo max in W": 1178190,
   "direction": 289,
   "inclination": 3,
   "effecincy": 15,
   "manufacturer": "Kuvalis, Miller and O'Hara",
   "model": "2500 Club Coupe"
 },
 {
   "id": 173,
   "sid": 28728381,
   "address": "628 Gina Street",
   "Longtitude": 120754,
   "Latitude": -10.0396,
   "number_of_panels": 408,
   "capacity_pr_panel_in_W": 4717,
   "theo max in W": 1924536,
   "direction": 41,
   "inclination": 18,
   "effecincy": 9,
   "manufacturer": "Gleichner Group",
   "model": "Town & Country"
 },
 {
   "id": 174,
   "sid": 804276633,
   "address": "47 Hovde Trail",
   "Longtitude": 14.4161297,
   "Latitude": 48.6514469,
   "number_of_panels": 231,
   "capacity_pr_panel_in_W": 2714,
   "theo max in W": 626934,
   "direction": 309,
   "inclination": 2,
   "effecincy": 12,
   "manufacturer": "Paucek-Miller",
   "model": "Dakota Club"
 },
 {
   "id": 175,
   "sid": 96036135,
   "address": "2525 Cody Junction",
   "Longtitude": -49.2473044,
   "Latitude": -16.820257,
   "number_of_panels": 420,
   "capacity_pr_panel_in_W": 3881,
   "theo max in W": 1630020,
   "direction": 3,
   "inclination": 2,
   "effecincy": 19,
   "manufacturer": "Schumm-Rohan",
   "model": "Tracker"
 },
 {
   "id": 176,
   "sid": 636754905,
   "address": "74907 Shasta Street",
   "Longtitude": 122.850015,
   "Latitude": 7.584057,
   "number_of_panels": 738,
   "capacity_pr_panel_in_W": 2900,
   "theo max in W": 2140200,
   "direction": 196,
   "inclination": 0,
   "effecincy": 9,
   "manufacturer": "Quigley, Brown and Powlowski",
   "model": "Cirrus"
 },
 {
   "id": 177,
   "sid": 488786313,
   "address": "31897 Melody Trail",
   "Longtitude": 82.353656,
   "Latitude": 44.840524,
   "number_of_panels": 107,
   "capacity_pr_panel_in_W": 4344,
   "theo max in W": 464808,
   "direction": 79,
   "inclination": 11,
   "effecincy": 21,
   "manufacturer": "Kunze Group",
   "model": "NSX"
 },
 {
   "id": 178,
   "sid": 352410652,
   "address": "96 American Pass",
   "Longtitude": 45.2711048,
   "Latitude": 40.1442308,
   "number_of_panels": 535,
   "capacity_pr_panel_in_W": 4262,
   "theo max in W": 2280170,
   "direction": 176,
   "inclination": 20,
   "effecincy": 14,
   "manufacturer": "McGlynn LLC",
   "model": "Regal"
 },
 {
   "id": 179,
   "sid": 761615276,
   "address": "59 Gale Drive",
   "Longtitude": 122.2833466,
   "Latitude": 7.3517838,
   "number_of_panels": 566,
   "capacity_pr_panel_in_W": 1405,
   "theo max in W": 795230,
   "direction": 145,
   "inclination": 14,
   "effecincy": 24,
   "manufacturer": "McKenzie, Johns and Heathcote",
   "model": "Corvette"
 },
 {
   "id": 180,
   "sid": 862173361,
   "address": "0 Farragut Court",
   "Longtitude": 20.9297741,
   "Latitude": 50.1343159,
   "number_of_panels": 443,
   "capacity_pr_panel_in_W": 3814,
   "theo max in W": 1689602,
   "direction": 195,
   "inclination": 13,
   "effecincy": 21,
   "manufacturer": "Lueilwitz Group",
   "model": "Murano"
 },
 {
   "id": 181,
   "sid": 335034850,
   "address": "0944 Forster Circle",
   "Longtitude": 89.054565,
   "Latitude": 29.31718,
   "number_of_panels": 221,
   "capacity_pr_panel_in_W": 1287,
   "theo max in W": 284427,
   "direction": 184,
   "inclination": 7,
   "effecincy": 5,
   "manufacturer": "Bogisich, McCullough and Nicolas",
   "model": "Cooper"
 },
 {
   "id": 182,
   "sid": 315349382,
   "address": "2 Ryan Park",
   "Longtitude": 124.292626,
   "Latitude": 45.506995,
   "number_of_panels": 220,
   "capacity_pr_panel_in_W": 2737,
   "theo max in W": 602140,
   "direction": 110,
   "inclination": 10,
   "effecincy": 22,
   "manufacturer": "West-Orn",
   "model": "W126"
 },
 {
   "id": 183,
   "sid": 162484876,
   "address": "64 Waxwing Center",
   "Longtitude": 120.307334,
   "Latitude": 29.831643,
   "number_of_panels": 416,
   "capacity_pr_panel_in_W": 873,
   "theo max in W": 363168,
   "direction": 100,
   "inclination": 4,
   "effecincy": 17,
   "manufacturer": "Kutch Inc",
   "model": "Truck"
 },
 {
   "id": 184,
   "sid": 326074650,
   "address": "86 Mandrake Drive",
   "Longtitude": 3.1930302,
   "Latitude": 6.8192374,
   "number_of_panels": 466,
   "capacity_pr_panel_in_W": 3781,
   "theo max in W": 1761946,
   "direction": 2,
   "inclination": 20,
   "effecincy": 5,
   "manufacturer": "Weimann LLC",
   "model": "Vanquish S"
 },
 {
   "id": 185,
   "sid": 945749245,
   "address": "84 Roxbury Lane",
   "Longtitude": -105.4093552,
   "Latitude": 20.8965838,
   "number_of_panels": 885,
   "capacity_pr_panel_in_W": 287,
   "theo max in W": 253995,
   "direction": 18,
   "inclination": 1,
   "effecincy": 13,
   "manufacturer": "Wintheiser and Sons",
   "model": "tC"
 },
 {
   "id": 186,
   "sid": 972102875,
   "address": "6449 Spohn Lane",
   "Longtitude": 113.200971,
   "Latitude": 39.134282,
   "number_of_panels": 92,
   "capacity_pr_panel_in_W": 4824,
   "theo max in W": 443808,
   "direction": 88,
   "inclination": 2,
   "effecincy": 6,
   "manufacturer": "Jones, Dare and McClure",
   "model": "E150"
 },
 {
   "id": 187,
   "sid": 989770665,
   "address": "092 Coleman Point",
   "Longtitude": 121.4213333,
   "Latitude": 14.2226543,
   "number_of_panels": 28,
   "capacity_pr_panel_in_W": 4879,
   "theo max in W": 136612,
   "direction": 173,
   "inclination": 17,
   "effecincy": 17,
   "manufacturer": "Wuckert, McDermott and Boyle",
   "model": "Legend"
 },
 {
   "id": 188,
   "sid": 573658681,
   "address": "8 Springview Center",
   "Longtitude": 19.944654,
   "Latitude": 49.970045,
   "number_of_panels": 120,
   "capacity_pr_panel_in_W": 572,
   "theo max in W": 68640,
   "direction": 151,
   "inclination": 11,
   "effecincy": 19,
   "manufacturer": "Heller, Torphy and Medhurst",
   "model": "I"
 },
 {
   "id": 189,
   "sid": 425057978,
   "address": "69020 Corben Circle",
   "Longtitude": -50.7317774,
   "Latitude": -21.9221397,
   "number_of_panels": 583,
   "capacity_pr_panel_in_W": 4650,
   "theo max in W": 2710950,
   "direction": 313,
   "inclination": 12,
   "effecincy": 21,
   "manufacturer": "Morissette-D'Amore",
   "model": "Century"
 },
 {
   "id": 190,
   "sid": 676944351,
   "address": "4 Beilfuss Park",
   "Longtitude": 112.4952454,
   "Latitude": 49.2712859,
   "number_of_panels": 107,
   "capacity_pr_panel_in_W": 2175,
   "theo max in W": 232725,
   "direction": 186,
   "inclination": 17,
   "effecincy": 20,
   "manufacturer": "Schowalter-Reilly",
   "model": "Laser"
 },
 {
   "id": 191,
   "sid": 252180776,
   "address": "12850 Lakeland Road",
   "Longtitude": 106.1536828,
   "Latitude": 22.7370366,
   "number_of_panels": 732,
   "capacity_pr_panel_in_W": 2685,
   "theo max in W": 1965420,
   "direction": 113,
   "inclination": 17,
   "effecincy": 18,
   "manufacturer": "Greenfelder-Mills",
   "model": "Silverado 1500"
 },
 {
   "id": 192,
   "sid": 649926144,
   "address": "11694 Melrose Place",
   "Longtitude": 118.479654,
   "Latitude": 36.684789,
   "number_of_panels": 927,
   "capacity_pr_panel_in_W": 2614,
   "theo max in W": 2423178,
   "direction": 56,
   "inclination": 6,
   "effecincy": 11,
   "manufacturer": "Stokes Inc",
   "model": "Boxster"
 },
 {
   "id": 193,
   "sid": 859409603,
   "address": "36063 Haas Place",
   "Longtitude": 125.8610989,
   "Latitude": 7.3756564,
   "number_of_panels": 356,
   "capacity_pr_panel_in_W": 2232,
   "theo max in W": 794592,
   "direction": 43,
   "inclination": 5,
   "effecincy": 17,
   "manufacturer": "O'Connell Group",
   "model": "New Beetle"
 },
 {
   "id": 194,
   "sid": 859842745,
   "address": "05485 Sutteridge Road",
   "Longtitude": 100.695534,
   "Latitude": 34.073572,
   "number_of_panels": 230,
   "capacity_pr_panel_in_W": 1254,
   "theo max in W": 288420,
   "direction": 236,
   "inclination": 14,
   "effecincy": 21,
   "manufacturer": "Boehm-Champlin",
   "model": "Hombre Space"
 },
 {
   "id": 195,
   "sid": 947762201,
   "address": "20 Bay Pass",
   "Longtitude": 39.3988465,
   "Latitude": 51.1373971,
   "number_of_panels": 461,
   "capacity_pr_panel_in_W": 1955,
   "theo max in W": 901255,
   "direction": 215,
   "inclination": 15,
   "effecincy": 6,
   "manufacturer": "Schaefer-Hand",
   "model": "Accent"
 },
 {
   "id": 196,
   "sid": 665437020,
   "address": "6 Charing Cross Terrace",
   "Longtitude": 52.4223979,
   "Latitude": 54.8603009,
   "number_of_panels": 214,
   "capacity_pr_panel_in_W": 2128,
   "theo max in W": 455392,
   "direction": 112,
   "inclination": 3,
   "effecincy": 23,
   "manufacturer": "Collier LLC",
   "model": "SL-Class"
 },
 {
   "id": 197,
   "sid": 189501936,
   "address": "52729 Gerald Terrace",
   "Longtitude": 21.8727139,
   "Latitude": 49.935213,
   "number_of_panels": 410,
   "capacity_pr_panel_in_W": 4150,
   "theo max in W": 1701500,
   "direction": 214,
   "inclination": 16,
   "effecincy": 21,
   "manufacturer": "Mayer Group",
   "model": "Cabriolet"
 },
 {
   "id": 198,
   "sid": 90232576,
   "address": "642 Glacier Hill Pass",
   "Longtitude": 109.47991,
   "Latitude": 28.947037,
   "number_of_panels": 150,
   "capacity_pr_panel_in_W": 2302,
   "theo max in W": 345300,
   "direction": 184,
   "inclination": 14,
   "effecincy": 21,
   "manufacturer": "Kutch, Collins and Koepp",
   "model": "Voyager"
 },
 {
   "id": 199,
   "sid": 492912891,
   "address": "382 Lindbergh Way",
   "Longtitude": 38.0011402,
   "Latitude": 55.9240189,
   "number_of_panels": 110,
   "capacity_pr_panel_in_W": 1062,
   "theo max in W": 116820,
   "direction": 158,
   "inclination": 7,
   "effecincy": 20,
   "manufacturer": "Wolf and Sons",
   "model": "9-3"
 },
 {
   "id": 200,
   "sid": 749010874,
   "address": "4 Harper Junction",
   "Longtitude": 23.7275817,
   "Latitude": 42.3894673,
   "number_of_panels": 831,
   "capacity_pr_panel_in_W": 4150,
   "theo max in W": 3448650,
   "direction": 74,
   "inclination": 4,
   "effecincy": 15,
   "manufacturer": "O'Hara LLC",
   "model": "Astro"
 },
  {
    "id": 21,
    "sid": 16010,
    "magistrat": "MBU ",
    "address": "Mårslet Skole",
    "number_of_panels": 703,
    "capacity_pr_panel_in_W": 169,
    "max production in one hour": 118631,
    "Longtitude": 10.156939,
    "Latitude": 56.068882,
    "direction": 190,
    "inclination": 15,
    "effecincy": 15,
    "isOffline": false
  },
  {
    "id": 31,
    "sid": 16011,
    "magistrat": "MBU ",
    "address": "Skødstrup Skole",
    "number_of_panels": 547,
    "capacity_pr_panel_in_W": 122,
    "max production in one hour": 66598,
    "Longtitude": 10.3085428,
    "Latitude": 56.27132,
    "direction": 220,
    "inclination": 15,
    "effecincy": 15,
    "isOffline": false
  },
  {
    "id": 35,
    "sid": 16016,
    "magistrat": "MBU ",
    "address": "Søndervangskolen",
    "number_of_panels": 484,
    "capacity_pr_panel_in_W": 141,
    "max production in one hour": 68009,
    "Longtitude": 10.1498375,
    "Latitude": 56.1116448,
    "direction": 120,
    "inclination": 15,
    "effecincy": 15,
    "isOffline": false
  },
  {
    "id": 32,
    "sid": 16014,
    "magistrat": "MBU ",
    "address": "Solbjergskolen",
    "number_of_panels": 454,
    "capacity_pr_panel_in_W": 159,
    "max production in one hour": 72190,
    "Longtitude": 10.0849624,
    "Latitude": 56.0422738,
    "direction": 150,
    "inclination": 15,
    "effecincy": 15,
    "isOffline": false
  },
  {
    "id": 36,
    "sid": 16012,
    "magistrat": "MBU ",
    "address": "Tilst Skole",
    "number_of_panels": 298,
    "capacity_pr_panel_in_W": 303,
    "max production in one hour": 90146,
    "Longtitude": 10.1132164,
    "Latitude": 56.1894943,
    "direction": 70,
    "inclination": 15,
    "effecincy": 15,
    "isOffline": false
  },
  {
    "id": 28,
    "sid": 16021,
    "magistrat": "MBU ",
    "address": "Skjoldhøjskolen",
    "number_of_panels": 282,
    "capacity_pr_panel_in_W": 180,
    "max production in one hour": 50840,
    "Longtitude": 10.113712,
    "Latitude": 56.174121,
    "direction": 130,
    "inclination": 15,
    "effecincy": 15,
    "isOffline": false
  },
  {
    "id": 40,
    "sid": 15523,
    "magistrat": "MKB ",
    "address": "Dokk1",
    "number_of_panels": 274,
    "capacity_pr_panel_in_W": 765,
    "max production in one hour": 209709,
    "Longtitude": 10.2143501,
    "Latitude": 56.1535693,
    "direction": 160,
    "inclination": 15,
    "effecincy": 15,
    "isOffline": false
  },
  {
    "id": 16,
    "sid": 16018,
    "magistrat": "MBU ",
    "address": "Kragelundskolen",
    "number_of_panels": 245,
    "capacity_pr_panel_in_W": 180,
    "max production in one hour": 44168,
    "Longtitude": 10.2003279,
    "Latitude": 56.114997,
    "direction": 200,
    "inclination": 15,
    "effecincy": 15,
    "isOffline": false
  },
  {
    "id": 9,
    "sid": 16008,
    "magistrat": "MBU ",
    "address": "Holme Skole",
    "number_of_panels": 240,
    "capacity_pr_panel_in_W": 189,
    "max production in one hour": 45252,
    "Longtitude": 10.1782474,
    "Latitude": 56.1161969,
    "direction": 170,
    "inclination": 15,
    "effecincy": 15,
    "isOffline": false
  },
  {
    "id": 62,
    "sid": 54284,
    "magistrat": "MTM ",
    "address": "Kalkværksvej 10",
    "number_of_panels": 196,
    "capacity_pr_panel_in_W": 0,
    "max production in one hour": 0,
    "Longtitude": 10.2116996,
    "Latitude": 56.1504819,
    "direction": 200,
    "inclination": 15,
    "effecincy": 15,
    "isOffline": true
  },
  {
    "id": 7,
    "sid": 16017,
    "magistrat": "MBU ",
    "address": "Gammelgårdskolen",
    "number_of_panels": 151,
    "capacity_pr_panel_in_W": 194,
    "max production in one hour": 29267,
    "Longtitude": 10.156984,
    "Latitude": 56.159365,
    "direction": 160,
    "inclination": 15,
    "effecincy": 15,
    "isOffline": false
  },
  {
    "id": 48,
    "sid": 54282,
    "magistrat": "MSO ",
    "address": "Ceres Allé 13",
    "number_of_panels": 146,
    "capacity_pr_panel_in_W": 13,
    "max production in one hour": 1858,
    "Longtitude": 10.1899751,
    "Latitude": 56.1541348,
    "direction": 190,
    "inclination": 15,
    "effecincy": 15,
    "isOffline": false
  },
  {
    "id": 37,
    "sid": 16013,
    "magistrat": "MBU ",
    "address": "Vestergårdskolen",
    "number_of_panels": 139,
    "capacity_pr_panel_in_W": 218,
    "max production in one hour": 30371,
    "Longtitude": 10.1566862,
    "Latitude": 56.1294594,
    "direction": 210,
    "inclination": 15,
    "effecincy": 15,
    "isOffline": false
  },
  {
    "id": 26,
    "sid": 16020,
    "magistrat": "MBU ",
    "address": "Rundhøjskolen",
    "number_of_panels": 120,
    "capacity_pr_panel_in_W": 169,
    "max production in one hour": 20259,
    "Longtitude": 10.1779022,
    "Latitude": 56.1184176,
    "direction": 190,
    "inclination": 15,
    "effecincy": 15,
    "isOffline": false
  },
  {
    "id": 20,
    "sid": 16009,
    "magistrat": "MBU ",
    "address": "Malling Skole",
    "number_of_panels": 111,
    "capacity_pr_panel_in_W": 269,
    "max production in one hour": 29890,
    "Longtitude": 10.1920561,
    "Latitude": 56.0374322,
    "direction": 270,
    "inclination": 15,
    "effecincy": 15,
    "isOffline": false
  },
  {
    "id": 53,
    "sid": 2506,
    "magistrat": "MSO ",
    "address": "LC Mosealleen 1-3",
    "number_of_panels": 102,
    "capacity_pr_panel_in_W": 328,
    "max production in one hour": 33442,
    "Longtitude": 10.1106529,
    "Latitude": 56.1915133,
    "direction": 160,
    "inclination": 15,
    "effecincy": 15,
    "isOffline": false
  },
  {
    "id": 14,
    "sid": 54386,
    "magistrat": "MBU ",
    "address": "Kantorvænget 33",
    "number_of_panels": 75,
    "capacity_pr_panel_in_W": 43,
    "max production in one hour": 0,
    "Longtitude": 10.206416,
    "Latitude": 56.2006071,
    "direction": 210,
    "inclination": 15,
    "effecincy": 15,
    "isOffline": true
  },
  {
    "id": 19,
    "sid": 16019,
    "magistrat": "MBU ",
    "address": "Lisbjergskolen",
    "number_of_panels": 72,
    "capacity_pr_panel_in_W": 533,
    "max production in one hour": 38383,
    "Longtitude": 10.1577891,
    "Latitude": 56.2191107,
    "direction": 270,
    "inclination": 15,
    "effecincy": 15,
    "isOffline": false
  },
  {
    "id": 39,
    "sid": 298,
    "magistrat": "MBU ",
    "address": "Vidtskuevej 25",
    "number_of_panels": 45,
    "capacity_pr_panel_in_W": 136,
    "max production in one hour": 6116,
    "Longtitude": 10.1772345,
    "Latitude": 56.1280063,
    "direction": 170,
    "inclination": 15,
    "effecincy": 15,
    "isOffline": false
  },
  {
    "id": 2,
    "sid": 54399,
    "magistrat": "MBU ",
    "address": "Ajstrupvej 49",
    "number_of_panels": 22,
    "capacity_pr_panel_in_W": 84,
    "max production in one hour": 3351,
    "Longtitude": 10.1482844,
    "Latitude": 56.177605,
    "direction": 350,
    "inclination": 15,
    "effecincy": 15,
    "isOffline": false
  },
   {
    "id": 64,
    "sid": 100001,
    "magistrat": "",
    "address": "Gigantium",
    "number_of_panels": 40,
    "capacity_pr_panel_in_W": 240,
    "max production in one hour": 10000,
    "Longtitude": 9.963093,
    "Latitude": 57.0180491,
    "direction": 10,
    "inclination": 7,
    "effecincy": 15,
    "isOffline": false
  },
  {
    "id": 30,
    "sid": 16015,
    "magistrat": "MBU ",
    "address": "Skæring Skole",
    "number_of_panels": 4,
    "capacity_pr_panel_in_W": 23.995,
    "max production in one hour": 95979,
    "Longtitude": 10.2990808,
    "Latitude": 56.2266707,
    "direction": 120,
    "inclination": 15,
    "effecincy": 15,
    "isOffline": false
  }
]
